{"version": 0.6, "generator": "Overpass API 0.7.62.8 e802775f", "osm3s": {"timestamp_osm_base": "2026-01-12T12:40:45Z", "copyright": "The data included in this document is from www.openstreetmap.org. The data is made available under ODbL."}, "elements": [{"type": "node", "id": 42606800, "lat": 43.6546864, "lon": -79.3877875, "tags": {"addr:city": "Toronto", "addr:floor": "G", "addr:housenumber": "443", "addr:postcode": "M5G 2H6", "addr:street": "University Avenue", "amenity": "bank", "atm": "yes", "branch": "University & Dundas", "brand": "RBC", "brand:en": "RBC Royal Bank", "brand:fr": "RBC Banque Royale", "brand:wikidata": "Q735261", "brand:wikipedia": "en:Royal Bank of Canada", "check_date": "2025-12-02", "internet_access": "yes", "internet_access:ssid": "RBCGuest", "level": "0", "name": "RBC Royal Bank", "name:en": "RBC Royal Bank", "name:fr": "RBC Banque Royale", "official_name": "Royal Bank of Canada", "opening_hours": "Mo-Th 09:30-17:00; Fr 09:30-18:00; PH off", "website": "https://www.rbcroyalbank.com/", "wheelchair": "yes"}}, {"type": "node", "id": 48553584, "lat": 43.6790726, "lon": -79.3451373, "tags": {"amenity": "bank", "brand": "RBC", "brand:en": "RBC Royal Bank", "brand:fr": "RBC Banque Royale", "brand:wikidata": "Q735261", "brand:wikipedia": "en:Royal Bank of Canada", "name": "RBC", "name:en": "RBC Royal Bank", "name:fr": "RBC Banque Royale", "official_name": "Royal Bank of Canada", "wheelchair": "yes"}}, {"type": "node", "id": 48553736, "lat": 43.6786724, "lon": -79.3454732, "tags": {"amenity": "bank", "brand": "National Bank", "brand:en": "National Bank", "brand:fr": "Banque Nationale", "brand:wikidata": "Q634298", "brand:wikipedia": "en:National Bank of Canada", "name": "National Bank", "name:en": "National Bank", "name:fr": "Banque Nationale", "official_name": "National Bank of Canada", "official_name:en": "National Bank of Canada", "official_name:fr": "Banque Nationale du Canada"}}, {"type": "node", "id": 53542712, "lat": 43.65166, "lon": -79.3818522, "tags": {"alt_name": "TD Canada Trust", "amenity": "bank", "brand": "TD", "brand:wikidata": "Q1080670", "brand:wikipedia": "en:TD Canada Trust", "name": "TD", "website": "https://www.tdcanadatrust.com/"}}, {"type": "node", "id": 60930914, "lat": 43.6746006, "lon": -79.3963035, "tags": {"addr:city": "Toronto", "addr:housenumber": "165", "addr:street": "Avenue Road", "alt_name": "TD Canada Trust", "amenity": "bank", "brand": "TD", "brand:wikidata": "Q1080670", "brand:wikipedia": "en:TD Canada Trust", "name": "TD", "opendata:type": "104008", "opening_hours": "Mo-We 08:00-18:00; Th-Fr 08:00-20:00; Sa 08:00-16:00; Su off", "website": "https://www.tdcanadatrust.com/", "wheelchair": "yes"}}, {"type": "node", "id": 62574880, "lat": 43.6652895, "lon": -79.4110785, "tags": {"addr:city": "Toronto", "addr:housenumber": "532", "addr:street": "Bloor Street West", "amenity": "bank", "brand": "CIBC", "brand:wikidata": "Q666694", "brand:wikipedia": "en:Canadian Imperial Bank of Commerce", "check_date": "2025-12-10", "name": "CIBC", "operator": "CIBC", "wheelchair": "yes"}}, {"type": "node", "id": 62574888, "lat": 43.6650617, "lon": -79.412109, "tags": {"addr:city": "Toronto", "addr:housenumber": "574", "addr:street": "Bloor Street West", "alt_name": "TD Canada Trust", "amenity": "bank", "brand": "TD", "brand:wikidata": "Q1080670", "brand:wikipedia": "en:TD Canada Trust", "check_date": "2025-06-17", "name": "TD", "opening_hours": "Mo-Fr 09:00-18:00; Sa 09:00-16:00", "operator": "TD Canada Trust", "operator:wikidata": "Q1080670", "website": "https://www.tdcanadatrust.com/", "wheelchair": "no"}}, {"type": "node", "id": 118422310, "lat": 43.6553511, "lon": -79.3862549, "tags": {"addr:housenumber": "180", "addr:street": "Dundas Street West", "alt_name": "TD Canada Trust", "amenity": "bank", "atm": "yes", "brand": "TD", "brand:wikidata": "Q1080670", "brand:wikipedia": "en:TD Canada Trust", "check_date": "2023-07-21", "drive_through": "no", "name": "TD"}}, {"type": "node", "id": 118422987, "lat": 43.6546209, "lon": -79.3886431, "tags": {"addr:city": "Toronto", "addr:housenumber": "438", "addr:street": "University Avenue", "amenity": "bank", "atm": "yes", "brand": "BMO", "brand:wikidata": "Q806693", "brand:wikipedia": "en:Bank of Montreal", "check_date": "2025-12-11", "check_date:opening_hours": "2025-07-30", "drive_through": "no", "level": "0", "name": "BMO", "name:it": "BMO", "official_name": "Bank of Montreal", "opening_hours": "Mo-We 09:30-17:00; Th,Fr 09:30-18:00; Sa,Su off", "operator": "Bank of Montreal", "wheelchair": "yes"}}, {"type": "node", "id": 118423294, "lat": 43.6548789, "lon": -79.3888261, "tags": {"addr:city": "Toronto", "addr:housenumber": "460", "addr:postcode": "M5G1V1", "addr:street": "University Avenue", "amenity": "bank", "atm": "yes", "brand": "CIBC", "brand:wikidata": "Q666694", "brand:wikipedia": "en:Canadian Imperial Bank of Commerce", "check_date": "2025-12-02", "drive_through": "no", "internet_access": "wlan", "internet_access:fee": "customers", "level": "0", "name": "CIBC", "opening_hours": "Mo-Fr 09:30-17:00", "opening_hours:drive_through": "Mo-Fr 09:30-16:00; Sa-Su off", "operator": "CIBC", "payment:cash": "yes", "payment:credit_cards": "yes", "payment:debit_cards": "yes", "phone": "+1 4169802260", "website": "https://www.cibc.com/en/personal-banking.html"}}, {"type": "node", "id": 158694452, "lat": 43.6494869, "lon": -79.4206095, "tags": {"alt_name": "TD Canada Trust", "amenity": "bank", "atm": "yes", "brand": "TD", "brand:wikidata": "Q1080670", "brand:wikipedia": "en:TD Canada Trust", "name": "TD", "opening_hours": "Mo-We 09:00-18:00, Th-Fr 09:00-20:00, Sa 09:00-16:00", "website": "https://www.tdcanadatrust.com/", "wheelchair": "yes"}}, {"type": "node", "id": 158694453, "lat": 43.6492225, "lon": -79.4205494, "tags": {"addr:city": "Toronto", "addr:housenumber": "235", "addr:street": "Ossington Avenue", "amenity": "bank", "atm": "yes", "brand": "CIBC", "brand:wikidata": "Q666694", "brand:wikipedia": "en:Canadian Imperial Bank of Commerce", "name": "CIBC", "opening_hours": "Mo-We 09:00-17:00, Th-Fr 09:00-19:00, Sa 09:00-16:00", "wheelchair": "yes"}}, {"type": "node", "id": 158712943, "lat": 43.6806092, "lon": -79.4322095}, {"type": "node", "id": 158713932, "lat": 43.682619, "lon": -79.4200684, "tags": {"amenity": "bank", "atm": "yes", "brand": "CIBC", "brand:wikidata": "Q666694", "brand:wikipedia": "en:Canadian Imperial Bank of Commerce", "check_date": "2024-08-26", "name": "CIBC"}}, {"type": "node", "id": 207715089, "lat": 43.6581003, "lon": -79.4004508, "tags": {"addr:housenumber": "268", "addr:street": "College Street", "amenity": "bank", "atm": "yes", "brand": "CIBC", "brand:wikidata": "Q666694", "brand:wikipedia": "en:Canadian Imperial Bank of Commerce", "check_date": "2025-05-25", "check_date:opening_hours": "2025-04-17", "name": "CIBC", "opening_hours": "Mo-Fr 09:30-17:00", "operator": "CIBC"}}, {"type": "node", "id": 209248235, "lat": 43.688064, "lon": -79.3952113, "tags": {"addr:city": "Toronto", "addr:housenumber": "10", "addr:street": "St. Clair Avenue West", "amenity": "bank", "atm": "yes", "brand": "RBC", "brand:en": "RBC Royal Bank", "brand:fr": "RBC Banque Royale", "brand:wikidata": "Q735261", "brand:wikipedia": "en:Royal Bank of Canada", "check_date": "2024-09-10", "name": "RBC", "name:en": "RBC Royal Bank", "name:fr": "RBC Banque Royale", "official_name": "Royal Bank of Canada", "phone": "+1-416-974-7840", "store_name": "St. Clair & Yonge"}}, {"type": "node", "id": 209248239, "lat": 43.6879606, "lon": -79.3938392, "tags": {"amenity": "bank", "atm": "yes", "brand": "Scotiabank", "brand:wikidata": "Q451476", "brand:wikipedia": "en:Scotiabank", "check_date": "2024-07-31", "name": "Scotiabank", "website": "http://www.scotiabank.com/"}}, {"type": "node", "id": 240433358, "lat": 43.6799847, "lon": -79.390951, "tags": {"alt_name": "TD Canada Trust", "amenity": "bank", "brand": "TD", "brand:wikidata": "Q1080670", "brand:wikipedia": "en:TD Canada Trust", "name": "TD", "website": "https://www.tdcanadatrust.com/", "wheelchair": "no"}}, {"type": "node", "id": 244885465, "lat": 43.6548046, "lon": -79.4198243, "tags": {"addr:city": "Toronto", "addr:housenumber": "747", "addr:postcode": "M6G 1C5", "addr:street": "College Street", "amenity": "bank", "brand": "National Bank", "brand:en": "National Bank", "brand:fr": "Banque Nationale", "brand:wikidata": "Q634298", "brand:wikipedia": "en:National Bank of Canada", "name": "National Bank", "name:en": "National Bank", "name:fr": "Banque Nationale", "official_name": "National Bank of Canada", "official_name:en": "National Bank of Canada", "official_name:fr": "Banque Nationale du Canada", "opening_hours": "Mo-We 10:00-17:00; Sa 10:00-15:00; Th 10:00-18:00; Fr 10:00-16:00", "phone": "+1-416-537-3182", "wheelchair": "yes"}}, {"type": "node", "id": 245020010, "lat": 43.6555594, "lon": -79.4128022, "tags": {"addr:city": "Toronto", "addr:housenumber": "568", "addr:postcode": "M6G 1B3", "addr:street": "College Street", "amenity": "bank", "brand": "BMO", "brand:wikidata": "Q806693", "brand:wikipedia": "en:Bank of Montreal", "name": "BMO", "official_name": "Bank of Montreal", "phone": "+1-416-534-8441", "wheelchair": "yes"}}, {"type": "node", "id": 245022492, "lat": 43.649652, "lon": -79.4197417, "tags": {"addr:city": "Toronto", "addr:housenumber": "1102", "addr:street": "Dundas Street West", "amenity": "bank", "brand": "BMO", "brand:wikidata": "Q806693", "brand:wikipedia": "en:Bank of Montreal", "name": "BMO", "official_name": "Bank of Montreal", "opening_hours": "Mo-We 09:00-17:00, Th-Fr 09:00-19:00, Sa 09:00-16:00", "wheelchair": "limited"}}, {"type": "node", "id": 246694245, "lat": 43.6608087, "lon": -79.3849397, "tags": {"alt_name": "TD Canada Trust", "amenity": "bank", "atm": "yes", "atm:capacity": "4", "brand": "TD", "brand:wikidata": "Q1080670", "brand:wikipedia": "en:TD Canada Trust", "level": "0", "name": "TD", "website": "https://www.tdcanadatrust.com/", "wheelchair": "yes"}}, {"type": "node", "id": 246694246, "lat": 43.6605979, "lon": -79.3859841, "tags": {"amenity": "bank", "brand": "CIBC", "brand:wikidata": "Q666694", "brand:wikipedia": "en:Canadian Imperial Bank of Commerce", "check_date": "2023-07-19", "name": "CIBC", "operator": "CIBC"}}, {"type": "node", "id": 246694247, "lat": 43.6609387, "lon": -79.3861145, "tags": {"addr:city": "Toronto", "addr:housenumber": "800", "addr:postcode": "M5S 3A9", "addr:province": "Ontario", "addr:street": "Bay Street", "amenity": "bank", "atm": "yes", "atm:network": "The Exchange", "brand": "Alterna Savings", "brand:wikidata": "Q4736322", "brand:wikipedia": "en:Alterna Savings", "check_date": "2023-07-19", "drive_through": "no", "name": "Alterna Savings", "opening_hours": "Mo-Fr 10:00-17:00; Sa-Su closed", "website": "https://www.alterna.ca/", "wheelchair": "yes"}}, {"type": "node", "id": 247134310, "lat": 43.5938589, "lon": -79.5353071, "tags": {"addr:city": "Etobicoke", "addr:housenumber": "3609", "addr:street": "Lake Shore Boulevard West", "amenity": "bank", "atm": "yes", "brand": "RBC", "brand:en": "RBC Royal Bank", "brand:fr": "RBC Banque Royale", "brand:wikidata": "Q735261", "brand:wikipedia": "en:Royal Bank of Canada", "check_date": "2025-05-19", "internet_access": "wlan", "name": "RBC", "name:en": "RBC Royal Bank", "name:fr": "RBC Banque Royale", "official_name": "Royal Bank of Canada"}}, {"type": "node", "id": 249298648, "lat": 43.6457393, "lon": -79.3942953, "tags": {"addr:city": "Toronto", "addr:housenumber": "434", "addr:street": "King Street West", "amenity": "bank", "atm": "yes", "brand": "RBC", "brand:en": "RBC Royal Bank", "brand:fr": "RBC Banque Royale", "brand:wikidata": "Q735261", "brand:wikipedia": "en:Royal Bank of Canada", "check_date": "2026-01-10", "drive_through": "no", "name": "RBC Royal Bank", "name:en": "RBC Royal Bank", "name:fr": "RBC Banque Royale", "official_name": "Royal Bank of Canada", "operator": "RBC", "website": "http://www.rbcroyalbank.com/"}}, {"type": "node", "id": 251246409, "lat": 43.6516671, "lon": -79.4509372, "tags": {"alt_name": "Meridian", "amenity": "bank", "atm": "yes", "brand": "Meridian Credit Union", "brand:wikidata": "Q6819303", "brand:wikipedia": "en:Meridian Credit Union", "check_date": "2025-07-08", "name": "Meridian Credit Union"}}, {"type": "node", "id": 252170710, "lat": 43.6569416, "lon": -79.4523337, "tags": {"addr:housename": "The Crossway", "addr:postcode": "M6P 4A9", "addr:street": "Dundas Street West", "amenity": "bank", "atm": "yes", "brand": "CIBC", "brand:wikidata": "Q666694", "brand:wikipedia": "en:Canadian Imperial Bank of Commerce", "check_date": "2025-07-08", "name": "CIBC", "name:it": "CIBC", "operator": "CIBC"}}, {"type": "node", "id": 264107462, "lat": 43.6902007, "lon": -79.2907173, "tags": {"addr:city": "East York", "addr:housenumber": "3003", "addr:postcode": "M4C 1M9", "addr:province": "Ontario", "addr:street": "Danforth Avenue", "amenity": "bank", "atm": "yes", "brand": "CIBC", "brand:wikidata": "Q666694", "brand:wikipedia": "en:Canadian Imperial Bank of Commerce", "fax": "+1-416-698-7144", "name": "CIBC", "opening_hours": "Mo-Fr 09:30-17:00", "operator": "CIBC", "phone": "+1-416-698-7583", "wheelchair": "yes"}}, {"type": "node", "id": 264414083, "lat": 43.6855628, "lon": -79.3125376, "tags": {"amenity": "bank", "brand": "BMO", "brand:wikidata": "Q806693", "brand:wikipedia": "en:Bank of Montreal", "name": "BMO", "official_name": "Bank of Montreal", "old_name": "CIBC"}}, {"type": "node", "id": 264826252, "lat": 43.6857011, "lon": -79.313543, "tags": {"amenity": "bank", "atm": "yes", "brand": "RBC", "brand:en": "RBC Royal Bank", "brand:fr": "RBC Banque Royale", "brand:wikidata": "Q735261", "brand:wikipedia": "en:Royal Bank of Canada", "name": "RBC", "name:en": "RBC Royal Bank", "name:fr": "RBC Banque Royale", "official_name": "Royal Bank of Canada"}}, {"type": "node", "id": 264826384, "lat": 43.6857586, "lon": -79.3131857, "tags": {"amenity": "bank", "brand": "Scotiabank", "brand:wikidata": "Q451476", "brand:wikipedia": "en:Scotiabank", "name": "Scotiabank", "website": "http://www.scotiabank.com/"}}, {"type": "node", "id": 266540292, "lat": 43.7055361, "lon": -79.312951, "tags": {"amenity": "bank", "brand": "Scotiabank", "brand:wikidata": "Q451476", "brand:wikipedia": "en:Scotiabank", "name": "Scotiabank", "website": "http://www.scotiabank.com/"}}, {"type": "node", "id": 266540327, "lat": 43.7060127, "lon": -79.3120812, "tags": {"amenity": "bank", "brand": "RBC", "brand:en": "RBC Royal Bank", "brand:fr": "RBC Banque Royale", "brand:wikidata": "Q735261", "brand:wikipedia": "en:Royal Bank of Canada", "name": "RBC", "name:en": "RBC Royal Bank", "name:fr": "RBC Banque Royale", "official_name": "Royal Bank of Canada"}}, {"type": "node", "id": 267131374, "lat": 43.6915139, "lon": -79.2887998, "tags": {"alt_name": "TD Canada Trust", "amenity": "bank", "atm": "yes", "brand": "TD", "brand:wikidata": "Q1080670", "brand:wikipedia": "en:TD Canada Trust", "name": "TD", "opening_hours": "Mo-Fr 08:00-20:00; Sa 08:00-16:00; Su off", "website": "https://www.tdcanadatrust.com/"}}, {"type": "node", "id": 273325242, "lat": 43.6511039, "lon": -79.3810285, "tags": {"addr:housenumber": "375", "addr:postcode": "M5H 2V5", "addr:street": "Bay Street", "alt_name": "Meridian", "amenity": "bank", "atm": "yes", "brand": "Meridian Credit Union", "brand:wikidata": "Q6819303", "brand:wikipedia": "en:Meridian Credit Union", "name": "Meridian Credit Union"}}, {"type": "node", "id": 273325246, "lat": 43.6502261, "lon": -79.3785002, "tags": {"addr:city": "Toronto", "addr:housenumber": "110", "addr:street": "Yonge Street", "alt_name": "TD Canada Trust", "amenity": "bank", "brand": "TD", "brand:wikidata": "Q1080670", "brand:wikipedia": "en:TD Canada Trust", "name": "TD", "opening_hours": "Mo-We 08:00-18:00; Th-Fr 08:00-20:00; Sa 08:00-16:00; Su off", "operator": "TD Canada Trust", "phone": "+1-416-869-6262", "website": "https://www.tdcanadatrust.com/", "wheelchair": "yes"}}, {"type": "node", "id": 277040111, "lat": 43.683539, "lon": -79.3234489, "tags": {"amenity": "bank", "atm": "yes", "brand": "CIBC", "brand:wikidata": "Q666694", "brand:wikipedia": "en:Canadian Imperial Bank of Commerce", "check_date": "2025-12-27", "level": "0", "name": "CIBC", "wheelchair": "yes"}}, {"type": "node", "id": 277040119, "lat": 43.6840572, "lon": -79.3211211, "tags": {"addr:unit": "4", "alt_name": "TD Canada Trust", "amenity": "bank", "atm": "yes", "brand": "TD", "brand:wikidata": "Q1080670", "brand:wikipedia": "en:TD Canada Trust", "name": "TD", "opening_hours": "Mo-Fr 08:00-20:00; Sa 08:00-16:00", "website": "https://www.tdcanadatrust.com/", "wheelchair": "yes"}}, {"type": "node", "id": 277120905, "lat": 43.6763935, "lon": -79.3586989, "tags": {"amenity": "bank", "brand": "CIBC", "brand:wikidata": "Q666694", "brand:wikipedia": "en:Canadian Imperial Bank of Commerce", "name": "CIBC", "wheelchair": "yes"}}, {"type": "node", "id": 278103209, "lat": 43.689507, "lon": -79.2966028, "tags": {"amenity": "bank", "brand": "RBC", "brand:en": "RBC Royal Bank", "brand:fr": "RBC Banque Royale", "brand:wikidata": "Q735261", "brand:wikipedia": "en:Royal Bank of Canada", "name": "RBC", "name:en": "RBC Royal Bank", "name:fr": "RBC Banque Royale", "official_name": "Royal Bank of Canada"}}, {"type": "node", "id": 280493846, "lat": 43.6647874, "lon": -79.3842539, "tags": {"amenity": "bank", "brand": "Scotiabank", "brand:wikidata": "Q451476", "brand:wikipedia": "en:Scotiabank", "check_date": "2025-12-13", "name": "Scotiabank", "opening_hours": "Mo-Fr 09:30-16:00", "website": "http://www.scotiabank.com/", "wheelchair": "yes"}}, {"type": "node", "id": 280901587, "lat": 43.6727893, "lon": -79.3190655, "tags": {"amenity": "bank", "brand": "RBC", "brand:en": "RBC Royal Bank", "brand:fr": "RBC Banque Royale", "brand:wikidata": "Q735261", "brand:wikipedia": "en:Royal Bank of Canada", "name": "RBC Royal Bank", "name:en": "RBC Royal Bank", "name:fr": "RBC Banque Royale", "official_name": "Royal Bank of Canada"}}, {"type": "node", "id": 281658965, "lat": 43.6503456, "lon": -79.3895418, "tags": {"addr:city": "Toronto", "addr:housenumber": "214", "addr:postcode": "M5V 1Z3", "addr:street": "Queen Street West", "amenity": "bank", "atm": "yes", "brand": "Scotiabank", "brand:wikidata": "Q451476", "brand:wikipedia": "en:Scotiabank", "check_date": "2025-12-17", "name": "Scotiabank", "phone": "+1-416-866-6591", "toilets:wheelchair": "yes", "website": "http://www.scotiabank.com/", "wheelchair": "yes"}}, {"type": "node", "id": 281664445, "lat": 43.6497308, "lon": -79.3757635, "tags": {"addr:city": "Toronto", "addr:housenumber": "70", "addr:street": "King Street East", "amenity": "bank", "brand": "CIBC", "brand:wikidata": "Q666694", "brand:wikipedia": "en:Canadian Imperial Bank of Commerce", "check_date": "2025-05-24", "name": "CIBC", "operator": "CIBC"}}, {"type": "node", "id": 281669607, "lat": 43.6526831, "lon": -79.3790982, "tags": {"amenity": "bank", "atm": "yes", "brand": "BMO", "brand:wikidata": "Q806693", "brand:wikipedia": "en:Bank of Montreal", "name": "BMO", "official_name": "Bank of Montreal", "operator": "Bank of Montreal", "wheelchair": "yes"}}, {"type": "node", "id": 288058313, "lat": 43.7039098, "lon": -79.4124848, "tags": {"alt_name": "TD Canada Trust", "amenity": "bank", "brand": "TD", "brand:wikidata": "Q1080670", "brand:wikipedia": "en:TD Canada Trust", "name": "TD", "opening_hours": "Mo-We 08:00-18:00; Th-Fr 08:00-20:00; Sa 08:00-16:00", "website": "https://www.tdcanadatrust.com/", "wheelchair": "no"}}, {"type": "node", "id": 292781390, "lat": 43.6655938, "lon": -79.3524652, "tags": {"amenity": "bank", "brand": "Scotiabank", "brand:wikidata": "Q451476", "brand:wikipedia": "en:Scotiabank", "built_date": "1911", "name": "Scotiabank", "website": "http://www.scotiabank.com/"}}, {"type": "node", "id": 296784683, "lat": 43.6704886, "lon": -79.3864652, "tags": {"addr:city": "Toronto", "addr:housenumber": "2", "addr:province": "Ontario", "addr:street": "Bloor Street East", "amenity": "bank", "brand": "RBC", "brand:en": "RBC Royal Bank", "brand:fr": "RBC Banque Royale", "brand:wikidata": "Q735261", "brand:wikipedia": "en:Royal Bank of Canada", "image": "https://commons.wikimedia.org/wiki/File:IMG_RBC_Royal_Bank.jpg", "name": "RBC Royal Bank", "name:en": "RBC Royal Bank", "name:fr": "RBC Banque Royale", "official_name": "Royal Bank of Canada", "operator": "RBC"}}, {"type": "node", "id": 307900372, "lat": 43.7283869, "lon": -79.4793307, "tags": {"alt_name": "TD Canada Trust", "amenity": "bank", "atm": "yes", "brand": "TD", "brand:wikidata": "Q1080670", "brand:wikipedia": "en:TD Canada Trust", "name": "TD", "website": "https://www.tdcanadatrust.com/"}}, {"type": "node", "id": 307900399, "lat": 43.726967, "lon": -79.482401}, {"type": "node", "id": 308696704, "lat": 43.6694974, "lon": -79.3895821, "tags": {"addr:city": "Toronto", "addr:housenumber": "77", "addr:postcode": "M4Y 2T1", "addr:province": "ON", "addr:street": "Bloor Street West", "alt_name": "TD Canada Trust", "amenity": "bank", "atm": "yes", "brand": "TD", "brand:wikidata": "Q1080670", "brand:wikipedia": "en:TD Canada Trust", "check_date:opening_hours": "2025-09-08", "image": "https://commons.wikimedia.org/wiki/File:IMGtdbank.jpg", "name": "TD", "opening_hours": "Mo-We 08:00-18:00; Th,Fr 08:00-20:00; Sa 08:00-16:00", "website": "https://www.tdcanadatrust.com/", "wheelchair": "yes"}}, {"type": "node", "id": 308696746, "lat": 43.6697574, "lon": -79.3884078, "tags": {"amenity": "bank", "brand": "BMO", "brand:wikidata": "Q806693", "brand:wikipedia": "en:Bank of Montreal", "name": "BMO", "official_name": "Bank of Montreal", "opening_hours": "Mo-We 09:30-17:00; Th,Fr 09:30-18:00; Sa 09:30-16:00", "operator": "Bank of Montreal"}}, {"type": "node", "id": 314142737, "lat": 43.6968807, "lon": -79.3715218, "tags": {"addr:city": "East York", "addr:housename": "Branch # 1595", "addr:housenumber": "1213", "addr:postcode": "M4G 2Z8", "addr:province": "Ontario", "addr:street": "Moore Avenue", "alt_name": "TD Canada Trust", "amenity": "bank", "atm": "yes", "brand": "TD", "brand:wikidata": "Q1080670", "brand:wikipedia": "en:TD Canada Trust", "drive_through": "no", "name": "TD", "website": "https://www.tdcanadatrust.com/"}}, {"type": "node", "id": 317428331, "lat": 43.6706574, "lon": -79.2978742, "tags": {"alt_name": "TD Canada Trust", "amenity": "bank", "brand": "TD", "brand:wikidata": "Q1080670", "brand:wikipedia": "en:TD Canada Trust", "name": "TD", "website": "https://www.tdcanadatrust.com/"}}, {"type": "node", "id": 317428340, "lat": 43.6703283, "lon": -79.2976937, "tags": {"amenity": "bank", "brand": "RBC", "brand:en": "RBC Royal Bank", "brand:fr": "RBC Banque Royale", "brand:wikidata": "Q735261", "brand:wikipedia": "en:Royal Bank of Canada", "name": "RBC", "name:en": "RBC Royal Bank", "name:fr": "RBC Banque Royale", "official_name": "Royal Bank of Canada"}}, {"type": "node", "id": 339550209, "lat": 43.7175222, "lon": -79.4550771, "tags": {"amenity": "bank", "brand": "BMO", "brand:wikidata": "Q806693", "brand:wikipedia": "en:Bank of Montreal", "name": "BMO", "official_name": "Bank of Montreal"}}, {"type": "node", "id": 339550231, "lat": 43.7166351, "lon": -79.4563575, "tags": {"addr:city": "North York", "addr:housenumber": "3140", "addr:street": "Dufferin Street", "alt_name": "TD Canada Trust", "amenity": "bank", "atm": "yes", "brand": "TD", "brand:wikidata": "Q1080670", "brand:wikipedia": "en:TD Canada Trust", "drive_through": "no", "name": "TD", "phone": "+1-416-785-7230", "website": "https://www.tdcanadatrust.com/"}}, {"type": "node", "id": 339550971, "lat": 43.7219746, "lon": -79.4559419}, {"type": "node", "id": 343270931, "lat": 43.6469768, "lon": -79.3959514, "tags": {"addr:city": "Toronto", "addr:housenumber": "112", "addr:street": "Spadina Avenue", "amenity": "bank", "atm": "yes", "brand": "BMO", "brand:wikidata": "Q806693", "brand:wikipedia": "en:Bank of Montreal", "name": "BMO", "official_name": "Bank of Montreal", "operator": "Bank of Montreal", "wheelchair": "yes"}}, {"type": "node", "id": 344473395, "lat": 43.6599901, "lon": -79.3852164, "tags": {"amenity": "bank", "atm": "yes", "brand": "BMO", "brand:wikidata": "Q806693", "brand:wikipedia": "en:Bank of Montreal", "check_date": "2023-07-19", "name": "BMO", "official_name": "Bank of Montreal", "opening_hours": "Mo-We 09:30-17:00, We-Fr 09:30-18:00", "operator": "Bank of Montreal", "wheelchair": "yes"}}, {"type": "node", "id": 344544934, "lat": 43.6637542, "lon": -79.3803409, "tags": {"amenity": "bank", "brand": "BMO", "brand:wikidata": "Q806693", "brand:wikipedia": "en:Bank of Montreal", "name": "BMO", "official_name": "Bank of Montreal", "opening_hours": "Mo-We 09:30-17:00; Th,Fr 09:30-18:00; Sa 09:30-16:00", "operator": "Bank of Montreal"}}, {"type": "node", "id": 354971781, "lat": 43.6475489, "lon": -79.3840222, "tags": {"amenity": "bank", "atm": "yes", "brand": "Scotiabank", "brand:wikidata": "Q451476", "brand:wikipedia": "en:Scotiabank", "check_date": "2025-07-12", "name": "Scotiabank", "website": "http://www.scotiabank.com/"}}, {"type": "node", "id": 354972468, "lat": 43.6475082, "lon": -79.3849711, "tags": {"amenity": "bank", "atm": "yes", "brand": "CIBC", "brand:wikidata": "Q666694", "brand:wikipedia": "en:Canadian Imperial Bank of Commerce", "check_date": "2025-07-17", "drive_through": "no", "name": "CIBC", "opening_hours": "Mo-Fr 09:30-16:00", "operator": "CIBC"}}, {"type": "node", "id": 359794261, "lat": 43.6407853, "lon": -79.5387392}, {"type": "node", "id": 359794262, "lat": 43.6409268, "lon": -79.5384059}, {"type": "node", "id": 360478992, "lat": 43.7007553, "lon": -79.5178518, "tags": {"amenity": "bank", "brand": "BMO", "brand:wikidata": "Q806693", "brand:wikipedia": "en:Bank of Montreal", "name": "BMO", "official_name": "Bank of Montreal"}}, {"type": "node", "id": 361017235, "lat": 43.7001827, "lon": -79.5169784, "tags": {"amenity": "bank", "brand": "RBC", "brand:en": "RBC Royal Bank", "brand:fr": "RBC Banque Royale", "brand:wikidata": "Q735261", "brand:wikipedia": "en:Royal Bank of Canada", "name": "RBC", "name:en": "RBC Royal Bank", "name:fr": "RBC Banque Royale", "official_name": "Royal Bank of Canada"}}, {"type": "node", "id": 370216399, "lat": 43.6923202, "lon": -79.5316675, "tags": {"addr:city": "Etobicoke", "addr:housenumber": "1500", "addr:street": "Royal York Road", "amenity": "bank", "brand": "BMO", "brand:wikidata": "Q806693", "brand:wikipedia": "en:Bank of Montreal", "level": "1", "name": "BMO", "official_name": "Bank of Montreal"}}, {"type": "node", "id": 371385460, "lat": 43.6503786, "lon": -79.4806298, "tags": {"addr:housenumber": "2330", "addr:street": "Bloor Street West", "amenity": "bank", "atm": "yes", "brand": "BMO", "brand:wikidata": "Q806693", "brand:wikipedia": "en:Bank of Montreal", "check_date": "2025-06-22", "name": "BMO", "official_name": "Bank of Montreal", "opening_hours": "Mo-We 09:30-17:00; Th-Fr 09:30-19:00; Sa 09:30-16:00; Su closed", "website": "http://www.bmo.com/"}}, {"type": "node", "id": 371385463, "lat": 43.6501286, "lon": -79.4802229, "tags": {"amenity": "bank", "brand": "RBC", "brand:en": "RBC Royal Bank", "brand:fr": "RBC Banque Royale", "brand:wikidata": "Q735261", "brand:wikipedia": "en:Royal Bank of Canada", "check_date": "2022-09-06", "name": "RBC", "name:en": "RBC Royal Bank", "name:fr": "RBC Banque Royale", "official_name": "Royal Bank of Canada", "opening_hours": "Mo-Fr 09:30-17:00; Sa 09:00-16:00", "website": "http://www.rbcroyalbank.com/"}}, {"type": "node", "id": 371385466, "lat": 43.650381, "lon": -79.4790342, "tags": {"addr:city": "Toronto", "addr:housenumber": "2295", "addr:street": "Bloor Street West", "amenity": "bank", "atm": "yes", "brand": "Scotiabank", "brand:wikidata": "Q451476", "brand:wikipedia": "en:Scotiabank", "check_date": "2025-03-09", "name": "Scotiabank", "opening_hours": "Mo-Sa 09:30-16:00; Su off", "website": "http://www.scotiabank.com/"}}, {"type": "node", "id": 372369978, "lat": 43.6686348, "lon": -79.3376544, "tags": {"addr:housenumber": "1011", "addr:street": "Gerrard Street East", "amenity": "bank", "brand": "RBC", "brand:en": "RBC Royal Bank", "brand:fr": "RBC Banque Royale", "brand:wikidata": "Q735261", "brand:wikipedia": "en:Royal Bank of Canada", "name": "RBC Royal Bank", "name:en": "RBC Royal Bank", "name:fr": "RBC Banque Royale", "official_name": "Royal Bank of Canada"}}, {"type": "node", "id": 372507294, "lat": 43.6970725, "lon": -79.329431, "tags": {"alt_name": "TD Canada Trust", "amenity": "bank", "brand": "TD", "brand:wikidata": "Q1080670", "brand:wikipedia": "en:TD Canada Trust", "name": "TD", "website": "https://www.tdcanadatrust.com/"}}, {"type": "node", "id": 372511421, "lat": 43.6970513, "lon": -79.3289613, "tags": {"amenity": "bank", "brand": "RBC", "brand:en": "RBC Royal Bank", "brand:fr": "RBC Banque Royale", "brand:wikidata": "Q735261", "brand:wikipedia": "en:Royal Bank of Canada", "name": "RBC", "name:en": "RBC Royal Bank", "name:fr": "RBC Banque Royale", "official_name": "Royal Bank of Canada"}}, {"type": "node", "id": 383562243, "lat": 43.675446, "lon": -79.5558959, "tags": {"addr:housenumber": "201", "addr:street": "Lloyd Manor Road", "amenity": "bank", "brand": "CIBC", "brand:wikidata": "Q666694", "brand:wikipedia": "en:Canadian Imperial Bank of Commerce", "name": "CIBC"}}, {"type": "node", "id": 383629960, "lat": 43.6922167, "lon": -79.4672508, "tags": {"amenity": "bank", "brand": "CIBC", "brand:wikidata": "Q666694", "brand:wikipedia": "en:Canadian Imperial Bank of Commerce", "name": "CIBC"}}, {"type": "node", "id": 383630004, "lat": 43.6951096, "lon": -79.4520745, "tags": {"amenity": "bank", "atm": "yes", "brand": "BMO", "brand:wikidata": "Q806693", "brand:wikipedia": "en:Bank of Montreal", "name": "BMO", "official_name": "Bank of Montreal"}}, {"type": "node", "id": 385626640, "lat": 43.725226, "lon": -79.253389, "tags": {"amenity": "bank", "brand": "TD Canada Trust", "brand:wikidata": "Q1080670", "brand:wikipedia": "en:TD Canada Trust", "name": "TD Canada Trust", "website": "https://www.tdcanadatrust.com/"}}, {"type": "node", "id": 387787108, "lat": 43.7184278, "lon": -79.3375333, "tags": {"amenity": "bank", "brand": "Scotiabank", "brand:wikidata": "Q451476", "brand:wikipedia": "en:Scotiabank", "name": "Scotiabank", "website": "http://www.scotiabank.com/"}}, {"type": "node", "id": 387790720, "lat": 43.7061668, "lon": -79.3462128, "tags": {"amenity": "bank", "brand": "Scotiabank", "brand:wikidata": "Q451476", "brand:wikipedia": "en:Scotiabank", "name": "Scotiabank", "old_name": "Scotiabank & Trust", "wheelchair": "yes"}}, {"type": "node", "id": 387790721, "lat": 43.7062844, "lon": -79.3457875, "tags": {"alt_name": "TD Canada Trust", "amenity": "bank", "brand": "TD", "brand:wikidata": "Q1080670", "brand:wikipedia": "en:TD Canada Trust", "name": "TD", "source": "approximation", "website": "https://www.tdcanadatrust.com/", "wheelchair": "yes"}}, {"type": "node", "id": 387791395, "lat": 43.7072831, "lon": -79.343013, "tags": {"amenity": "bank", "brand": "RBC", "brand:en": "RBC Royal Bank", "brand:fr": "RBC Banque Royale", "brand:wikidata": "Q735261", "brand:wikipedia": "en:Royal Bank of Canada", "name": "RBC", "name:en": "RBC Royal Bank", "name:fr": "RBC Banque Royale", "official_name": "Royal Bank of Canada", "wheelchair": "yes"}}, {"type": "node", "id": 389607948, "lat": 43.6530273, "lon": -79.3758591, "tags": {"addr:city": "Toronto", "addr:housenumber": "79", "addr:place": "Scotiabank", "addr:postcode": "M5C 1R8", "addr:street": "Queen Street East", "amenity": "bank", "brand": "Scotiabank", "brand:wikidata": "Q451476", "brand:wikipedia": "en:Scotiabank", "name": "Scotiabank", "website": "http://www.scotiabank.com/", "wheelchair": "yes"}}, {"type": "node", "id": 391005491, "lat": 43.6488521, "lon": -79.3808751, "tags": {"amenity": "bank", "brand": "BMO", "brand:wikidata": "Q806693", "brand:wikipedia": "en:Bank of Montreal", "check_date": "2025-06-06", "name": "BMO", "official_name": "Bank of Montreal", "operator": "Bank of Montreal"}}, {"type": "node", "id": 391011816, "lat": 43.6467933, "lon": -79.3790175, "tags": {"alt_name": "TD Canada Trust", "amenity": "bank", "brand": "TD", "brand:wikidata": "Q1080670", "brand:wikipedia": "en:TD Canada Trust", "name": "TD", "note": "very large branch", "operator": "TD Canada Trust", "website": "https://www.tdcanadatrust.com/"}}, {"type": "node", "id": 392156991, "lat": 43.7076261, "lon": -79.3761432, "tags": {"amenity": "bank", "brand": "BMO", "brand:wikidata": "Q806693", "brand:wikipedia": "en:Bank of Montreal", "name": "BMO", "official_name": "Bank of Montreal"}}, {"type": "node", "id": 392157018, "lat": 43.7052463, "lon": -79.374783, "tags": {"amenity": "bank", "brand": "Scotiabank", "brand:wikidata": "Q451476", "brand:wikipedia": "en:Scotiabank", "name": "Scotiabank", "website": "http://www.scotiabank.com/"}}, {"type": "node", "id": 393672323, "lat": 43.6534544, "lon": -79.3979581, "tags": {"amenity": "bank", "atm": "yes", "brand": "BMO", "brand:wikidata": "Q806693", "brand:wikipedia": "en:Bank of Montreal", "check_date": "2025-05-25", "name": "BMO", "official_name": "Bank of Montreal", "opening_hours": "Sa 09:30-16:00; Mo-We 09:30-17:00; Th,Fr 09:30-18:00", "operator": "Bank of Montreal"}}, {"type": "node", "id": 393673553, "lat": 43.6402812, "lon": -79.3933078, "tags": {"addr:city": "Toronto", "addr:housenumber": "1", "addr:postcode": "M5V 3Y7", "addr:street": "Fort York Boulevard", "amenity": "bank", "atm": "yes", "brand": "CIBC", "brand:wikidata": "Q666694", "brand:wikipedia": "en:Canadian Imperial Bank of Commerce", "name": "CIBC", "opening_hours": "Mo-Fr 09:30-17:00", "operator": "CIBC", "phone": "+1-416-623-9816", "wheelchair": "yes"}}, {"type": "node", "id": 393673556, "lat": 43.6407041, "lon": -79.3935507, "tags": {"addr:city": "Toronto", "addr:housenumber": "6", "addr:street": "Fort York Boulevard", "amenity": "bank", "brand": "RBC", "brand:en": "RBC Royal Bank", "brand:fr": "RBC Banque Royale", "brand:wikidata": "Q735261", "brand:wikipedia": "en:Royal Bank of Canada", "name": "RBC", "name:en": "RBC Royal Bank", "name:fr": "RBC Banque Royale", "official_name": "Royal Bank of Canada", "operator": "RBC", "website": "http://www.rbcroyalbank.com/"}}, {"type": "node", "id": 400705661, "lat": 43.664092, "lon": -79.368104, "tags": {"addr:city": "Toronto", "addr:housenumber": "245", "addr:street": "Carlton Street", "amenity": "bank", "brand": "CIBC", "brand:wikidata": "Q666694", "brand:wikipedia": "en:Canadian Imperial Bank of Commerce", "name": "CIBC", "opening_hours": "Mo,Tu 09:30-17:00, We,Th 09:30-20:00, Fr 09:30-19:00, Sa 09:00-16:00", "phone": "+1-416-980-6179", "wheelchair": "yes"}}, {"type": "node", "id": 409181181, "lat": 43.6832532, "lon": -79.3231592, "tags": {"amenity": "bank", "atm": "yes", "brand": "Alterna Savings", "brand:wikidata": "Q4736322", "brand:wikipedia": "en:Alterna Savings", "name": "Alterna Savings"}}, {"type": "node", "id": 410375775, "lat": 43.7325011, "lon": -79.4554387, "tags": {"amenity": "bank", "brand": "RBC", "brand:en": "RBC Royal Bank", "brand:fr": "RBC Banque Royale", "brand:wikidata": "Q735261", "name": "RBC", "name:en": "RBC Royal Bank", "name:fr": "RBC Banque Royale", "official_name": "Royal Bank of Canada"}}, {"type": "node", "id": 410375812, "lat": 43.7212822, "lon": -79.5112747, "tags": {"addr:housenumber": "1700", "addr:street": "Wilson Avenue", "amenity": "bank", "brand": "CIBC", "brand:wikidata": "Q666694", "brand:wikipedia": "en:Canadian Imperial Bank of Commerce", "level": "0", "name": "CIBC"}}, {"type": "node", "id": 410375815, "lat": 43.7197068, "lon": -79.5108512, "tags": {"addr:housenumber": "1593", "addr:street": "Wilson Avenue", "alt_name": "TD Canada Trust", "amenity": "bank", "brand": "TD", "brand:wikidata": "Q1080670", "brand:wikipedia": "en:TD Canada Trust", "check_date": "2025-06-08", "name": "TD"}}, {"type": "node", "id": 410375816, "lat": 43.7196372, "lon": -79.5111136, "tags": {"addr:housenumber": "1593", "addr:street": "Wilson Avenue", "amenity": "bank", "brand": "Scotiabank", "brand:wikidata": "Q451476", "brand:wikipedia": "en:Scotiabank", "check_date": "2025-06-08", "name": "Scotiabank", "website": "http://www.scotiabank.com/"}}, {"type": "node", "id": 410376722, "lat": 43.7231322, "lon": -79.5600257, "tags": {"addr:city": "Etobicoke", "addr:housenumber": "2428", "addr:street": "Islington Avenue", "amenity": "bank", "brand": "BMO", "brand:wikidata": "Q806693", "brand:wikipedia": "en:Bank of Montreal", "name": "BMO", "official_name": "Bank of Montreal", "opening_hours": "Mo-Fr 09:30-17:00"}}, {"type": "node", "id": 411934233, "lat": 43.6304911, "lon": -79.4821747, "tags": {"addr:housenumber": "125", "addr:street": "The Queensway", "alt_name": "TD Canada Trust", "amenity": "bank", "brand": "TD", "brand:wikidata": "Q1080670", "brand:wikipedia": "en:TD Canada Trust", "name": "TD", "website": "https://www.tdcanadatrust.com/", "wheelchair": "yes"}}, {"type": "node", "id": 412345963, "lat": 43.6492514, "lon": -79.3724309, "tags": {"alt_name": "TD Canada Trust", "amenity": "bank", "atm": "yes", "brand": "TD", "brand:wikidata": "Q1080670", "brand:wikipedia": "en:TD Canada Trust", "name": "TD", "opening_hours": "Mo-We 08:00-18:00; Th-Fr 08:00-20:00; Sa 08:00-16:00; Su off", "operator": "TD Canada Trust", "website": "https://www.tdcanadatrust.com/", "wheelchair": "yes"}}, {"type": "node", "id": 414737594, "lat": 43.6323718, "lon": -79.5525995, "tags": {"addr:housenumber": "225", "addr:street": "The East Mall", "amenity": "bank", "check_date": "2025-06-07", "name": "Ukrainian Credit Union"}}, {"type": "node", "id": 414983787, "lat": 43.6106977, "lon": -79.5476561, "tags": {"addr:housenumber": "863", "addr:street": "Brown's Line", "alt_name": "Bank of Montreal", "amenity": "bank", "atm": "yes", "brand": "BMO", "brand:wikidata": "Q806693", "brand:wikipedia": "en:Bank of Montreal", "check_date": "2025-06-28", "name": "BMO", "official_name": "Bank of Montreal"}}, {"type": "node", "id": 417231073, "lat": 43.7092175, "lon": -79.4776609, "tags": {"amenity": "bank", "brand": "CIBC", "brand:wikidata": "Q666694", "brand:wikipedia": "en:Canadian Imperial Bank of Commerce", "name": "CIBC"}}, {"type": "node", "id": 417232561, "lat": 43.7188715, "lon": -79.4324175, "tags": {"amenity": "bank", "brand": "Scotiabank", "brand:wikidata": "Q451476", "brand:wikipedia": "en:Scotiabank", "name": "Scotiabank", "old_name": "Scotiabank & Trust", "opening_hours": "Mo-Fr 09:30-17:00; Sa 09:30-16:00"}}, {"type": "node", "id": 429256527, "lat": 43.6624193, "lon": -79.5322077, "tags": {"addr:housenumber": "1500", "addr:street": "Islington Avenue", "amenity": "bank", "atm": "yes", "brand": "CIBC", "brand:wikidata": "Q666694", "brand:wikipedia": "en:Canadian Imperial Bank of Commerce", "name": "CIBC"}}, {"type": "node", "id": 431302420, "lat": 43.7096968, "lon": -79.2479783, "tags": {"amenity": "bank", "brand": "Scotiabank", "brand:wikidata": "Q451476", "brand:wikipedia": "en:Scotiabank", "name": "Scotiabank", "website": "http://www.scotiabank.com/"}}, {"type": "node", "id": 432772911, "lat": 43.6625768, "lon": -79.5317888, "tags": {"alt_name": "TD Canada Trust", "amenity": "bank", "atm": "yes", "brand": "TD", "brand:wikidata": "Q1080670", "brand:wikipedia": "en:TD Canada Trust", "check_date": "2025-08-01", "name": "TD"}}, {"type": "node", "id": 432774047, "lat": 43.7085545, "lon": -79.4758546, "tags": {"amenity": "bank", "brand": "Scotiabank", "brand:wikidata": "Q451476", "brand:wikipedia": "en:Scotiabank", "name": "Scotiabank", "website": "http://www.scotiabank.com/"}}, {"type": "node", "id": 432775824, "lat": 43.6138621, "lon": -79.4894314, "tags": {"alt_name": "Bank of Montreal", "amenity": "bank", "brand": "BMO", "brand:wikidata": "Q806693", "brand:wikipedia": "en:Bank of Montreal", "name": "BMO", "official_name": "Bank of Montreal", "source": "approximate"}}, {"type": "node", "id": 432778815, "lat": 43.621065, "lon": -79.5247746, "tags": {"addr:city": "Etobicoke", "addr:housenumber": "1233", "addr:street": "The Queensway", "amenity": "bank", "atm": "yes", "brand": "RBC", "brand:en": "RBC Royal Bank", "brand:fr": "RBC Banque Royale", "brand:wikidata": "Q735261", "brand:wikipedia": "en:Royal Bank of Canada", "name": "RBC", "name:en": "RBC Royal Bank", "name:fr": "RBC Banque Royale", "official_name": "Royal Bank of Canada"}}, {"type": "node", "id": 433542284, "lat": 43.7076523, "lon": -79.2681094, "tags": {"addr:postcode": "M1K1C6", "amenity": "bank", "atm": "yes", "branch": "00432", "brand": "CIBC", "brand:wikidata": "Q666694", "brand:wikipedia": "en:Canadian Imperial Bank of Commerce", "check_date": "2024-09-19", "drive_through": "no", "fax": "+1-416-698-6608", "name": "CIBC", "opening_hours": "Mo-Fr 09:30-17:00; Sa 09:30-16:00; Su off", "payment:cash": "yes", "payment:credit_cards": "yes", "payment:debit_cards": "yes", "phone": "+1 4166985983", "website": "https://locations.cibc.com/on/scarborough/00432", "wheelchair": "yes"}}, {"type": "node", "id": 433542291, "lat": 43.705641, "lon": -79.277928}, {"type": "node", "id": 474960367, "lat": 43.7073516, "lon": -79.4537818}, {"type": "node", "id": 474961236, "lat": 43.6781395, "lon": -79.4429495, "tags": {"amenity": "bank", "brand": "CIBC", "brand:wikidata": "Q666694", "brand:wikipedia": "en:Canadian Imperial Bank of Commerce", "name": "CIBC", "operator": "CIBC"}}, {"type": "node", "id": 485534323, "lat": 43.6312203, "lon": -79.5761445}, {"type": "node", "id": 485534351, "lat": 43.631278, "lon": -79.5758464}, {"type": "node", "id": 502020460, "lat": 43.679479, "lon": -79.4353284, "tags": {"amenity": "bank", "atm": "yes", "brand": "RBC", "brand:en": "RBC Royal Bank", "brand:fr": "RBC Banque Royale", "brand:wikidata": "Q735261", "brand:wikipedia": "en:Royal Bank of Canada", "name": "RBC", "name:en": "RBC Royal Bank", "name:fr": "RBC Banque Royale", "official_name": "Royal Bank of Canada"}}, {"type": "node", "id": 502704898, "lat": 43.6832156, "lon": -79.418845, "tags": {"addr:city": "Toronto", "addr:housenumber": "510", "addr:street": "St. Clair Avenue West", "alt_name": "TD Canada Trust", "amenity": "bank", "brand": "TD", "brand:wikidata": "Q1080670", "brand:wikipedia": "en:TD Canada Trust", "name": "TD", "opening_hours": "Mo-We 08:00-18:00; Th-Fr 08:00-20:00; Sa 08:00-16:00; Su off", "website": "https://www.tdcanadatrust.com/", "wheelchair": "yes"}}, {"type": "node", "id": 502704917, "lat": 43.6766008, "lon": -79.4482186, "tags": {"amenity": "bank", "brand": "National Bank", "brand:en": "National Bank", "brand:fr": "Banque Nationale", "brand:wikidata": "Q634298", "brand:wikipedia": "en:National Bank of Canada", "name": "National Bank", "name:en": "National Bank", "name:fr": "Banque Nationale", "official_name": "National Bank of Canada", "official_name:en": "National Bank of Canada", "official_name:fr": "Banque Nationale du Canada"}}, {"type": "node", "id": 504687083, "lat": 43.655154, "lon": -79.4338144, "tags": {"addr:housenumber": "900", "addr:street": "Dufferin Street", "amenity": "bank", "brand": "BMO", "brand:wikidata": "Q806693", "brand:wikipedia": "en:Bank of Montreal", "check_date": "2025-05-10", "name": "BMO", "official_name": "Bank of Montreal", "opening_hours": "Mo-We 10:00-17:00; Th-Fr 10:00-20:00; Sa 10:00-16:00; Su off"}}, {"type": "node", "id": 515618891, "lat": 43.6522301, "lon": -79.3788884, "tags": {"amenity": "bank", "brand": "CIBC", "brand:wikidata": "Q666694", "brand:wikipedia": "en:Canadian Imperial Bank of Commerce", "name": "CIBC", "operator": "CIBC"}}, {"type": "node", "id": 517226072, "lat": 43.7270811, "lon": -79.4025175, "tags": {"amenity": "bank", "brand": "Scotiabank", "brand:wikidata": "Q451476", "brand:wikipedia": "en:Scotiabank", "check_date": "2023-05-18", "name": "Scotiabank", "website": "http://www.scotiabank.com/"}}, {"type": "node", "id": 517226073, "lat": 43.7290201, "lon": -79.4033918, "tags": {"addr:housenumber": "3224", "addr:street": "Yonge Street", "amenity": "bank", "brand": "RBC", "brand:en": "RBC Royal Bank", "brand:fr": "RBC Banque Royale", "brand:wikidata": "Q735261", "brand:wikipedia": "en:Royal Bank of Canada", "name": "RBC", "name:en": "RBC Royal Bank", "name:fr": "RBC Banque Royale", "official_name": "Royal Bank of Canada"}}, {"type": "node", "id": 517226079, "lat": 43.7300086, "lon": -79.4036485, "tags": {"amenity": "bank", "brand": "CIBC", "brand:wikidata": "Q666694", "brand:wikipedia": "en:Canadian Imperial Bank of Commerce", "name": "CIBC"}}, {"type": "node", "id": 517227446, "lat": 43.73119, "lon": -79.4040412, "tags": {"addr:city": "Toronto", "addr:housenumber": "3320", "addr:street": "Yonge Street", "amenity": "bank", "atm": "yes", "brand": "BMO", "brand:wikidata": "Q806693", "brand:wikipedia": "en:Bank of Montreal", "name": "BMO", "official_name": "Bank of Montreal", "opening_hours": "Mo-We 09:00-17:00; Th-Fr 09:00-18:00; Sa 09:00-16:00"}}, {"type": "node", "id": 519717323, "lat": 43.6461841, "lon": -79.3795289, "tags": {"addr:city": "Toronto", "addr:housenumber": "200", "addr:street": "Bay Street", "amenity": "bank", "brand": "RBC", "brand:en": "RBC Royal Bank", "brand:fr": "RBC Banque Royale", "brand:wikidata": "Q735261", "brand:wikipedia": "en:Royal Bank of Canada", "name": "RBC", "name:en": "RBC Royal Bank", "name:fr": "RBC Banque Royale", "official_name": "Royal Bank of Canada", "opening_hours": "Mo-Fr 08:00-17:00", "phone": "+1-416-955-5115"}}, {"type": "node", "id": 519717374, "lat": 43.650423, "lon": -79.3811592, "tags": {"amenity": "bank", "atm": "yes", "brand": "ICICI Bank", "brand:wikidata": "Q1653258", "brand:wikipedia": "en:ICICI Bank", "name": "ICICI Bank", "short_name": "ICICI", "store_name": "ICICI Bank Downtown Branch"}}, {"type": "node", "id": 519717391, "lat": 43.65144, "lon": -79.381623, "tags": {"amenity": "bank", "brand": "Scotiabank", "brand:wikidata": "Q451476", "brand:wikipedia": "en:Scotiabank", "name": "Scotiabank", "website": "http://www.scotiabank.com/"}}, {"type": "node", "id": 524114023, "lat": 43.7112702, "lon": -79.3990987, "tags": {"addr:city": "Toronto", "addr:housenumber": "2453", "addr:street": "Yonge Street", "alt_name": "TD Canada Trust", "amenity": "bank", "atm": "yes", "brand": "TD", "brand:wikidata": "Q1080670", "brand:wikipedia": "en:TD Canada Trust", "check_date": "2025-10-19", "drive_through": "no", "internet_access": "wlan", "internet_access:fee": "customers", "level": "0", "name": "TD", "opening_hours": "Mo-We 09:00-18:00; Th-Fr 09:00-20:00; Sa 09:00-16:00; Su off", "payment:credit_cards": "yes", "payment:mastercard": "yes", "payment:visa": "yes", "phone": "+1 4169321500", "website": "https://www.td.com/ca/en/personal-banking/branch-locator#/?id=1928", "wheelchair": "yes"}}, {"type": "node", "id": 524119577, "lat": 43.7275397, "lon": -79.4030839, "tags": {"amenity": "bank", "brand": "TD Canada Trust", "brand:wikidata": "Q1080670", "brand:wikipedia": "en:TD Canada Trust", "name": "TD Canada Trust", "opening_hours": "Mo-We 08:00-18:00; Th-Fr 08:00-20:00; Sa 08:00-16:00; Su off", "website": "https://www.tdcanadatrust.com/"}}, {"type": "node", "id": 524150961, "lat": 43.6529369, "lon": -79.3971788, "tags": {"amenity": "bank", "brand": "CIBC", "brand:wikidata": "Q666694", "brand:wikipedia": "en:Canadian Imperial Bank of Commerce", "name": "CIBC", "note": "open sunday", "operator": "CIBC"}}, {"type": "node", "id": 524150970, "lat": 43.653737, "lon": -79.3947557, "tags": {"addr:housenumber": "396", "addr:postcode": "M5T 1G7", "addr:street": "Dundas Street West", "amenity": "bank", "atm": "yes", "branch": "Toronto Downtown Branch", "branch:zh": "\u591a\u4f26\u591a\u4e2d\u533a\u5206\u884c", "brand": "BOC", "brand:wikidata": "Q790068", "brand:wikipedia": "en:Bank of China", "check_date": "2025-12-02", "email": "tdb@bankofchina.ca", "fax": "+1-416-971-6551", "level": "0", "name": "BOC", "name:zh": "\u4e2d\u56fd\u94f6\u884c\uff08\u52a0\u62ff\u5927\uff09", "official_name": "Bank of China", "opening_hours": "Mo-Fr 10:00-16:30; PH off", "phone": "+1-416-971-8806", "website": "https://www.bankofchina.com/ca/en/aboutus/ab5/201111/t20111128_3123911.html"}}, {"type": "node", "id": 530787065, "lat": 43.645361, "lon": -79.4485152, "tags": {"addr:city": "Toronto", "addr:housenumber": "209", "addr:postcode": "M6R 2L5", "addr:province": "ON", "addr:street": "Roncesvalles Avenue", "amenity": "bank", "atm": "yes", "brand": "CIBC", "brand:wikidata": "Q666694", "brand:wikipedia": "en:Canadian Imperial Bank of Commerce", "check_date": "2025-07-02", "drive_through": "no", "name": "CIBC", "operator": "CIBC", "phone": "+1-416-533-1713", "wheelchair": "yes"}}, {"type": "node", "id": 530787069, "lat": 43.6452978, "lon": -79.448494, "tags": {"amenity": "bank", "brand": "Scotiabank", "brand:wikidata": "Q451476", "brand:wikipedia": "en:Scotiabank", "check_date": "2025-07-08", "name": "Scotiabank"}}, {"type": "node", "id": 530789557, "lat": 43.6447523, "lon": -79.4482598, "tags": {"addr:city": "Toronto", "addr:housenumber": "179", "addr:postcode": "M6R 2L5", "addr:province": "ON", "addr:street": "Roncesvalles Avenue", "amenity": "bank", "atm": "yes", "brand": "RBC", "brand:en": "RBC Royal Bank", "brand:fr": "RBC Banque Royale", "brand:wikidata": "Q735261", "brand:wikipedia": "en:Royal Bank of Canada", "check_date": "2025-07-08", "drive_through": "no", "name": "RBC", "name:en": "RBC Royal Bank", "name:fr": "RBC Banque Royale", "official_name": "Royal Bank of Canada", "operator": "Royal Bank of Canada", "phone": "+1-416-537-5232", "website": "https://maps.rbcroyalbank.com/locator/searchResults.php?t=6352"}}, {"type": "node", "id": 534376180, "lat": 43.6529896, "lon": -79.3983556, "tags": {"amenity": "bank", "atm": "yes", "brand": "Scotiabank", "brand:wikidata": "Q451476", "brand:wikipedia": "en:Scotiabank", "check_date": "2025-05-31", "name": "Scotiabank", "website": "http://www.scotiabank.com/"}}, {"type": "node", "id": 534453399, "lat": 43.6878836, "lon": -79.3942306, "tags": {"amenity": "bank", "atm": "yes", "brand": "CIBC", "brand:wikidata": "Q666694", "brand:wikipedia": "en:Canadian Imperial Bank of Commerce", "check_date": "2024-07-31", "name": "CIBC", "operator": "CIBC"}}, {"type": "node", "id": 535008506, "lat": 43.7041319, "lon": -79.4114942, "tags": {"addr:housenumber": "438", "addr:street": "Eglinton Avenue West", "amenity": "bank", "brand": "Scotiabank", "brand:wikidata": "Q451476", "brand:wikipedia": "en:Scotiabank", "name": "Scotiabank"}}, {"type": "node", "id": 535026357, "lat": 43.6996475, "lon": -79.4326525, "tags": {"amenity": "bank", "brand": "CIBC", "brand:wikidata": "Q666694", "brand:wikipedia": "en:Canadian Imperial Bank of Commerce", "name": "CIBC", "opening_hours": "Mo-Fr 09:30-17:00", "operator": "CIBC"}}, {"type": "node", "id": 535026380, "lat": 43.7010981, "lon": -79.4257714, "tags": {"alt_name": "TD Canada Trust", "amenity": "bank", "atm": "yes", "brand": "TD", "brand:wikidata": "Q1080670", "brand:wikipedia": "en:TD Canada Trust", "name": "TD", "website": "https://www.tdcanadatrust.com/", "wheelchair": "no"}}, {"type": "node", "id": 535026381, "lat": 43.7009203, "lon": -79.4266772, "tags": {"addr:housenumber": "880", "addr:street": "Eglinton Avenue West", "amenity": "bank", "atm": "yes", "brand": "RBC", "brand:en": "RBC Royal Bank", "brand:fr": "RBC Banque Royale", "brand:wikidata": "Q735261", "drive_through": "no", "name": "RBC", "name:en": "RBC Royal Bank", "name:fr": "RBC Banque Royale", "official_name": "Royal Bank of Canada", "website": "https://maps.rbcroyalbank.com/ON-TORONTO-branch-5722"}}, {"type": "node", "id": 535036457, "lat": 43.6473827, "lon": -79.5119835, "tags": {"addr:city": "Etobicoke", "addr:housenumber": "3022", "addr:street": "Bloor Street West", "alt_name": "BMO Wealth Management", "amenity": "bank", "atm": "yes", "brand": "BMO", "brand:wikidata": "Q806693", "brand:wikipedia": "en:Bank of Montreal", "check_date": "2025-06-21", "name": "BMO", "official_name": "Bank of Montreal", "opening_hours": "Mo-We 09:00-17:00; Th-Fr 09:00-18:00; Sa 09:30-16:00; Su off", "phone": "+1 4162312255; +1 4162318232", "short_name": "BMO"}}, {"type": "node", "id": 535036461, "lat": 43.6480098, "lon": -79.5091563, "tags": {"addr:housenumber": "2972", "addr:street": "Bloor Street West", "alt_name": "TD Canada Trust", "amenity": "bank", "atm": "yes", "brand": "TD", "brand:wikidata": "Q1080670", "brand:wikipedia": "en:TD Canada Trust", "check_date": "2025-04-26", "drive_through": "no", "name": "TD", "opening_hours": "Mo-Fr 08:00-20:00; Sa 08:00-16:00; Su 11:00-16:00", "wheelchair": "yes"}}, {"type": "node", "id": 535066754, "lat": 43.661221, "lon": -79.519966}, {"type": "node", "id": 535066756, "lat": 43.661207, "lon": -79.520022}, {"type": "node", "id": 535066757, "lat": 43.66131, "lon": -79.52007}, {"type": "node", "id": 535066784, "lat": 43.662428, "lon": -79.519582}, {"type": "node", "id": 535066785, "lat": 43.662455, "lon": -79.519531}, {"type": "node", "id": 538159523, "lat": 43.6884777, "lon": -79.4127866, "tags": {"addr:housenumber": "414", "addr:street": "Spadina Road", "alt_name": "Royal Bank", "amenity": "bank", "atm": "yes", "brand": "RBC", "brand:en": "RBC Royal Bank", "brand:fr": "RBC Banque Royale", "brand:wikidata": "Q735261", "brand:wikipedia": "en:Royal Bank of Canada", "check_date": "2025-03-31", "drive_through": "no", "name": "RBC", "name:en": "RBC Royal Bank", "name:fr": "RBC Banque Royale", "official_name": "Royal Bank of Canada", "operator": "RBC", "website": "https://maps.rbcroyalbank.com/ON-TORONTO-branch-1412"}}, {"type": "node", "id": 538343125, "lat": 43.671155, "lon": -79.3834663, "tags": {"amenity": "bank", "brand": "BMO", "brand:wikidata": "Q806693", "brand:wikipedia": "en:Bank of Montreal", "name": "BMO", "official_name": "Bank of Montreal", "opening_hours": "Mo-We 09:30-17:00; Th,Fr 09:30-18:00"}}, {"type": "node", "id": 540594626, "lat": 43.6774247, "lon": -79.4461179, "tags": {"amenity": "bank", "name": "IC Savings"}}, {"type": "node", "id": 540594627, "lat": 43.6778012, "lon": -79.4444415, "tags": {"addr:city": "Toronto", "addr:housenumber": "1200", "addr:street": "St. Clair Avenue West", "amenity": "bank", "atm": "yes", "brand": "BMO", "brand:wikidata": "Q806693", "brand:wikipedia": "en:Bank of Montreal", "name": "BMO", "official_name": "Bank of Montreal"}}, {"type": "node", "id": 542005029, "lat": 43.7260698, "lon": -79.2305537, "tags": {"amenity": "bank", "brand": "Scotiabank", "brand:wikidata": "Q451476", "brand:wikipedia": "en:Scotiabank", "name": "Scotiabank", "website": "http://www.scotiabank.com/", "wheelchair": "yes"}}, {"type": "node", "id": 544542564, "lat": 43.7261397, "lon": -79.2317405, "tags": {"amenity": "bank", "brand": "RBC", "brand:en": "RBC Royal Bank", "brand:fr": "RBC Banque Royale", "brand:wikidata": "Q735261", "brand:wikipedia": "en:Royal Bank of Canada", "name": "RBC Royal Bank", "name:en": "RBC Royal Bank", "name:fr": "RBC Banque Royale", "official_name": "Royal Bank of Canada"}}, {"type": "node", "id": 558628291, "lat": 43.6890372, "lon": -79.3485078, "tags": {"amenity": "bank", "brand": "CIBC", "brand:wikidata": "Q666694", "brand:wikipedia": "en:Canadian Imperial Bank of Commerce", "name": "CIBC", "wheelchair": "yes"}}, {"type": "node", "id": 560196724, "lat": 43.7055708, "lon": -79.4428298, "tags": {"amenity": "bank", "opening_hours": "Mo-We 08:00-18:00; Th-Fr 08:00-20:00; Sa 08:00-16:00; Su off"}}, {"type": "node", "id": 560227429, "lat": 43.6457992, "lon": -79.3857642, "tags": {"addr:city": "Toronto", "addr:housenumber": "155", "addr:street": "Wellington Street West", "addr:unit": "138B", "amenity": "bank", "brand": "RBC", "brand:en": "RBC Royal Bank", "brand:fr": "RBC Banque Royale", "brand:wikidata": "Q735261", "brand:wikipedia": "en:Royal Bank of Canada", "name": "RBC Royal Bank", "name:en": "RBC Royal Bank", "name:fr": "RBC Banque Royale", "official_name": "Royal Bank of Canada", "phone": "+1-416-955-6286", "wheelchair": "yes"}}, {"type": "node", "id": 561037783, "lat": 43.7203137, "lon": -79.4309907, "tags": {"amenity": "bank", "atm": "yes", "brand": "CIBC", "brand:wikidata": "Q666694", "brand:wikipedia": "en:Canadian Imperial Bank of Commerce", "name": "CIBC", "wheelchair": "yes"}}, {"type": "node", "id": 575248145, "lat": 43.6654382, "lon": -79.4091358, "tags": {"addr:city": "Toronto", "addr:housenumber": "523", "addr:street": "Bloor Street West", "amenity": "bank", "name": "easy financials", "office": "financial_services"}}, {"type": "node", "id": 598103301, "lat": 43.667908, "lon": -79.4418697, "tags": {"alt_name": "TD Canada Trust", "amenity": "bank", "brand": "TD", "brand:wikidata": "Q1080670", "brand:wikipedia": "en:TD Canada Trust", "check_date": "2025-11-30", "name": "TD", "website": "https://www.tdcanadatrust.com/", "wheelchair": "yes"}}, {"type": "node", "id": 691071776, "lat": 43.6598895, "lon": -79.3648467, "tags": {"amenity": "bank", "atm": "yes", "brand": "RBC", "brand:en": "RBC Royal Bank", "brand:fr": "RBC Banque Royale", "brand:wikidata": "Q735261", "brand:wikipedia": "en:Royal Bank of Canada", "name": "RBC Royal Bank", "name:en": "RBC Royal Bank", "name:fr": "RBC Banque Royale", "official_name": "Royal Bank of Canada"}}, {"type": "node", "id": 697808714, "lat": 43.6483733, "lon": -79.3791523, "tags": {"amenity": "bank", "brand": "CIBC", "brand:wikidata": "Q666694", "brand:wikipedia": "en:Canadian Imperial Bank of Commerce", "level": "-1", "name": "CIBC"}}, {"type": "node", "id": 701882856, "lat": 43.6483736, "lon": -79.3797071, "tags": {"amenity": "bank", "brand": "CIBC", "brand:wikidata": "Q666694", "brand:wikipedia": "en:Canadian Imperial Bank of Commerce", "check_date": "2025-06-06", "level": "0", "name": "CIBC", "wheelchair": "yes"}}, {"type": "node", "id": 707392505, "lat": 43.7124469, "lon": -79.4283582, "tags": {"addr:city": "North York", "addr:housenumber": "2790", "addr:street": "Bathurst Street", "amenity": "bank", "atm": "yes", "brand": "TD Canada Trust", "brand:wikidata": "Q1080670", "brand:wikipedia": "en:TD Canada Trust", "name": "TD Canada Trust", "opendata:type": "112001", "opening_hours": "Mo-Fr 08:00-20:00; Sa 08:00-16:00; Su off", "website": "https://www.tdcanadatrust.com/"}}, {"type": "node", "id": 708119391, "lat": 43.6995949, "lon": -79.39709, "tags": {"addr:city": "Toronto", "addr:housenumber": "1966", "addr:postcode": "M4S 1Z4", "addr:street": "Yonge Street", "alt_name": "TD Canada Trust", "amenity": "bank", "atm": "yes", "branch_ref": "0320 Yonge & Imperial", "brand": "TD", "brand:wikidata": "Q1080670", "brand:wikipedia": "en:TD Canada Trust", "name": "TD", "opening_hours": "Mo-We 08:00-18:00; Th-Fr 08:00-20:00; Sa 08:00-16:00; Su off", "website": "https://www.tdcanadatrust.com/", "wheelchair": "no"}}, {"type": "node", "id": 708258717, "lat": 43.7083621, "lon": -79.3993711}, {"type": "node", "id": 708258718, "lat": 43.7084623, "lon": -79.3988998}, {"type": "node", "id": 708258719, "lat": 43.7083489, "lon": -79.3988661}, {"type": "node", "id": 708258720, "lat": 43.708281, "lon": -79.3989158}, {"type": "node", "id": 708258721, "lat": 43.7081982, "lon": -79.3993049}, {"type": "node", "id": 717893252, "lat": 43.6582871, "lon": -79.3291563, "tags": {"addr:city": "Toronto", "addr:housenumber": "1015", "addr:street": "Lake Shore Boulevard East", "addr:unit": "2A", "amenity": "bank", "brand": "RBC", "brand:en": "RBC Royal Bank", "brand:fr": "RBC Banque Royale", "brand:wikidata": "Q735261", "brand:wikipedia": "en:Royal Bank of Canada", "name": "RBC", "name:en": "RBC Royal Bank", "name:fr": "RBC Banque Royale", "official_name": "Royal Bank of Canada", "phone": "+1-416-461-3970"}}, {"type": "node", "id": 717893276, "lat": 43.6579475, "lon": -79.3279252, "tags": {"alt_name": "TD Canada Trust", "amenity": "bank", "brand": "TD", "brand:wikidata": "Q1080670", "brand:wikipedia": "en:TD Canada Trust", "name": "TD", "website": "https://www.tdcanadatrust.com/"}}, {"type": "node", "id": 725609874, "lat": 43.617941, "lon": -79.54118}, {"type": "node", "id": 725610190, "lat": 43.6179044, "lon": -79.5413297}, {"type": "node", "id": 725610497, "lat": 43.6181903, "lon": -79.5414851}, {"type": "node", "id": 725614109, "lat": 43.618258, "lon": -79.5413201}, {"type": "node", "id": 726638764, "lat": 43.6203148, "lon": -79.5267716}, {"type": "node", "id": 726638818, "lat": 43.6206274, "lon": -79.5271739}, {"type": "node", "id": 726638839, "lat": 43.6205895, "lon": -79.5268948}, {"type": "node", "id": 726638923, "lat": 43.6203528, "lon": -79.52703}, {"type": "node", "id": 726638986, "lat": 43.6206558, "lon": -79.5270431}, {"type": "node", "id": 726639007, "lat": 43.6202928, "lon": -79.5268555}, {"type": "node", "id": 729132154, "lat": 43.7124583, "lon": -79.5677725}, {"type": "node", "id": 729132172, "lat": 43.7118841, "lon": -79.5677164}, {"type": "node", "id": 729132181, "lat": 43.7123807, "lon": -79.5677356}, {"type": "node", "id": 729132218, "lat": 43.7118678, "lon": -79.5679035}, {"type": "node", "id": 729132230, "lat": 43.7117286, "lon": -79.5678984}, {"type": "node", "id": 729132236, "lat": 43.7123921, "lon": -79.5680391}, {"type": "node", "id": 729132282, "lat": 43.7118282, "lon": -79.567884}, {"type": "node", "id": 729132307, "lat": 43.7126122, "lon": -79.5681436}, {"type": "node", "id": 729132323, "lat": 43.7119026, "lon": -79.5677673}, {"type": "node", "id": 729132328, "lat": 43.7118742, "lon": -79.5677533}, {"type": "node", "id": 729132333, "lat": 43.7124136, "lon": -79.5676032}, {"type": "node", "id": 729132364, "lat": 43.7127112, "lon": -79.5677446}, {"type": "node", "id": 729132368, "lat": 43.7117865, "lon": -79.5676692}, {"type": "node", "id": 729417903, "lat": 43.6938746, "lon": -79.5573211, "tags": {"alt_name": "TD Canada Trust", "amenity": "bank", "brand": "TD", "brand:wikidata": "Q1080670", "brand:wikipedia": "en:TD Canada Trust", "name": "TD", "opening_hours": "Mo-We 08:00-18:00; Th-Fr 08:00-20:00; Sa 08:00-16:00"}}, {"type": "node", "id": 729433325, "lat": 43.7080927, "lon": -79.4782073, "tags": {"alt_name": "TD Canada Trust", "amenity": "bank", "brand": "TD", "brand:wikidata": "Q1080670", "brand:wikipedia": "en:TD Canada Trust", "name": "TD", "website": "https://www.tdcanadatrust.com/", "wheelchair": "no"}}, {"type": "node", "id": 734826759, "lat": 43.6219364, "lon": -79.5242685}, {"type": "node", "id": 734826805, "lat": 43.6219824, "lon": -79.5240768}, {"type": "node", "id": 734826824, "lat": 43.6218166, "lon": -79.5239876}, {"type": "node", "id": 734826847, "lat": 43.6217698, "lon": -79.5242011}, {"type": "node", "id": 734833855, "lat": 43.6336867, "lon": -79.5197446}, {"type": "node", "id": 734833968, "lat": 43.6337368, "lon": -79.5194798}, {"type": "node", "id": 734834087, "lat": 43.6338677, "lon": -79.5195272}, {"type": "node", "id": 734834398, "lat": 43.6338176, "lon": -79.519792}, {"type": "node", "id": 754637551, "lat": 43.7050194, "lon": -79.3890851, "tags": {"amenity": "bank", "brand": "RBC", "brand:en": "RBC Royal Bank", "brand:fr": "RBC Banque Royale", "brand:wikidata": "Q735261", "brand:wikipedia": "en:Royal Bank of Canada", "name": "RBC", "name:en": "RBC Royal Bank", "name:fr": "RBC Banque Royale", "official_name": "Royal Bank of Canada"}}, {"type": "node", "id": 766938600, "lat": 43.6476539, "lon": -79.3858007, "tags": {"addr:housenumber": "200", "addr:street": "King Street West", "amenity": "bank", "brand": "BMO", "brand:wikidata": "Q806693", "brand:wikipedia": "en:Bank of Montreal", "check_date": "2025-05-02", "name": "BMO", "official_name": "Bank of Montreal", "opening_hours": "Mo-Fr 09:30-17:00; Sa-Su off"}}, {"type": "node", "id": 775939290, "lat": 43.6406229, "lon": -79.3777085, "tags": {"amenity": "bank", "atm": "yes", "brand": "Scotiabank", "brand:wikidata": "Q451476", "brand:wikipedia": "en:Scotiabank", "check_date": "2025-05-19", "name": "Scotiabank", "website": "http://www.scotiabank.com/", "wheelchair": "yes"}}, {"type": "node", "id": 850373152, "lat": 43.705878, "lon": -79.3894107, "tags": {"addr:city": "Toronto", "addr:housenumber": "690", "addr:postcode": "M4S 2N3", "addr:street": "Mount Pleasant Road", "addr:unit": "2", "alt_name": "Meridian", "amenity": "bank", "atm": "yes", "brand": "Meridian Credit Union", "brand:wikidata": "Q6819303", "brand:wikipedia": "en:Meridian Credit Union", "fax": "+1-416-440-2633", "name": "Meridian Credit Union", "opening_hours": "Mo-We 09:30-17:00; Th-Fr 09:30-19:00; Sa 09:30-15:00; Su off", "phone": "+1-416-440-2960", "website": "https://www.meridiancu.ca/Contact-Us/Branch-Details.aspx?id=100"}}, {"type": "node", "id": 871501524, "lat": 43.6682433, "lon": -79.3972205, "tags": {"addr:city": "Toronto", "addr:housenumber": "242", "addr:street": "Bloor Street West", "amenity": "bank", "atm": "yes", "brand": "BMO", "brand:wikidata": "Q806693", "brand:wikipedia": "en:Bank of Montreal", "internet_access": "wlan", "internet_access:fee": "no", "name": "BMO", "official_name": "Bank of Montreal", "opening_hours": "Mo-We 09:00-17:00; Th-Fr 09:00-19:00; Sa 09:00-15:00; Su off", "wheelchair": "yes"}}, {"type": "node", "id": 902109826, "lat": 43.6403402, "lon": -79.3947822, "tags": {"addr:city": "Toronto", "addr:housenumber": "26", "addr:street": "Fort York Boulevard", "amenity": "bank", "brand": "BMO", "brand:wikidata": "Q806693", "brand:wikipedia": "en:Bank of Montreal", "name": "BMO", "official_name": "Bank of Montreal", "opening_hours": "Mo-We 09:30-17:00; Th,Fr 09:30-18:00; Sa 09:30-16:00"}}, {"type": "node", "id": 975540390, "lat": 43.6693984, "lon": -79.3941592, "tags": {"amenity": "bank", "atm": "yes", "brand": "RBC", "brand:en": "RBC Royal Bank", "brand:fr": "RBC Banque Royale", "brand:wikidata": "Q735261", "name": "RBC", "name:en": "RBC Royal Bank", "name:fr": "RBC Banque Royale", "official_name": "Royal Bank of Canada", "opening_hours": "Mo-Fr 09:30-17:00; Sa 10:00-16:00", "website": "https://www.hsbc.ca/", "wheelchair": "yes"}}, {"type": "node", "id": 1047477353, "lat": 43.726542, "lon": -79.291886}, {"type": "node", "id": 1047477386, "lat": 43.726384, "lon": -79.291631}, {"type": "node", "id": 1047477391, "lat": 43.726603, "lon": -79.291608}, {"type": "node", "id": 1047477406, "lat": 43.726443, "lon": -79.291538}, {"type": "node", "id": 1047477415, "lat": 43.726346, "lon": -79.291615}, {"type": "node", "id": 1047477456, "lat": 43.726449, "lon": -79.29151}, {"type": "node", "id": 1047477471, "lat": 43.726364, "lon": -79.291534}, {"type": "node", "id": 1047477478, "lat": 43.72648, "lon": -79.291523}, {"type": "node", "id": 1047477506, "lat": 43.726404, "lon": -79.29155}, {"type": "node", "id": 1047477513, "lat": 43.726474, "lon": -79.291553}, {"type": "node", "id": 1047477520, "lat": 43.726346, "lon": -79.291804}, {"type": "node", "id": 1047477524, "lat": 43.726409, "lon": -79.291524}, {"type": "node", "id": 1119452018, "lat": 43.6423031, "lon": -79.3808879, "tags": {"alt_name": "TD Canada Trust", "amenity": "bank", "atm": "yes", "brand": "TD", "brand:wikidata": "Q1080670", "brand:wikipedia": "en:TD Canada Trust", "check_date": "2025-04-28", "name": "TD", "opening_hours": "Mo-We 08:00-18:00; Th,Fr 08:00-20:00; Sa 08:00-16:00", "operator": "Toronto-Dominion Bank", "website": "https://www.tdcanadatrust.com/", "wheelchair": "yes"}}, {"type": "node", "id": 1122192882, "lat": 43.655987, "lon": -79.383169, "tags": {"amenity": "bank", "atm": "yes", "brand": "CIBC", "brand:wikidata": "Q666694", "brand:wikipedia": "en:Canadian Imperial Bank of Commerce", "check_date": "2023-07-17", "count": "4", "drive_through": "no", "name": "CIBC", "wheelchair": "yes"}}, {"type": "node", "id": 1122913443, "lat": 43.6892417, "lon": -79.3947573, "tags": {"addr:city": "Toronto", "addr:housenumber": "1560", "addr:street": "Yonge Street", "amenity": "bank", "atm": "yes", "brand": "BMO", "brand:wikidata": "Q806693", "brand:wikipedia": "en:Bank of Montreal", "check_date": "2024-07-27", "name": "BMO", "official_name": "Bank of Montreal"}}, {"type": "node", "id": 1123669791, "lat": 43.674933, "lon": -79.388965, "tags": {"addr:city": "Toronto", "addr:housenumber": "950", "addr:street": "Yonge Street", "amenity": "bank", "name": "Effort Trust", "opendata:type": "115001"}}, {"type": "node", "id": 1137828949, "lat": 43.669261, "lon": -79.388357, "tags": {"amenity": "bank", "brand": "BMO", "brand:wikidata": "Q806693", "brand:wikipedia": "en:Bank of Montreal", "description": "Ground floor has atm", "name": "BMO", "official_name": "Bank of Montreal"}}, {"type": "node", "id": 1138449976, "lat": 43.6894982, "lon": -79.4131927, "tags": {"addr:city": "Toronto", "addr:housenumber": "462", "addr:street": "Spadina Road", "amenity": "bank", "brand": "CIBC", "brand:wikidata": "Q666694", "brand:wikipedia": "en:Canadian Imperial Bank of Commerce", "name": "CIBC", "opendata:type": "104008", "opening_hours": "Mo-Fr 09:30-17:00; Sa,Su off"}}, {"type": "node", "id": 1138450911, "lat": 43.6892939, "lon": -79.412794, "tags": {"addr:city": "Toronto", "addr:housenumber": "443", "addr:province": "Ontario", "addr:street": "Spadina Road", "alt_name": "TD Canada Trust", "amenity": "bank", "atm": "yes", "brand": "TD", "brand:wikidata": "Q1080670", "brand:wikipedia": "en:TD Canada Trust", "drive_through": "no", "name": "TD", "opening_hours": "Mo-Fr 09:00-18:00; Sa 09:00-16:00", "website": "https://www.tdcanadatrust.com/"}}, {"type": "node", "id": 1138451426, "lat": 43.6891218, "lon": -79.4127025, "tags": {"addr:city": "Toronto", "amenity": "bank", "brand": "BMO", "brand:wikidata": "Q806693", "brand:wikipedia": "en:Bank of Montreal", "drive_through": "no", "name": "BMO", "official_name": "Bank of Montreal", "opening_hours": "Mo-We 09:30-17:00; Th,Fr 09:30-18:00; Sa 09:30-16:00"}}, {"type": "node", "id": 1208665799, "lat": 43.7066748, "lon": -79.3994407, "tags": {"amenity": "bank", "brand": "RBC", "brand:en": "RBC Royal Bank", "brand:fr": "RBC Banque Royale", "brand:wikidata": "Q735261", "level": "0", "name": "RBC", "name:en": "RBC Royal Bank", "name:fr": "RBC Banque Royale", "official_name": "Royal Bank of Canada", "wheelchair": "yes"}}, {"type": "node", "id": 1208680689, "lat": 43.7038664, "lon": -79.4110459, "tags": {"amenity": "bank", "atm": "yes", "brand": "BMO", "brand:wikidata": "Q806693", "brand:wikipedia": "en:Bank of Montreal", "check_date": "2024-09-21", "name": "BMO", "official_name": "Bank of Montreal"}}, {"type": "node", "id": 1217985144, "lat": 43.7109065, "lon": -79.3998601}, {"type": "node", "id": 1217985147, "lat": 43.7109854, "lon": -79.3998878}, {"type": "node", "id": 1217985161, "lat": 43.7111022, "lon": -79.3994616}, {"type": "node", "id": 1217985173, "lat": 43.711012, "lon": -79.3998848}, {"type": "node", "id": 1217985183, "lat": 43.7109906, "lon": -79.3994429}, {"type": "node", "id": 1217985185, "lat": 43.7109728, "lon": -79.3998854}, {"type": "node", "id": 1217985213, "lat": 43.7110499, "lon": -79.3997105}, {"type": "node", "id": 1217985217, "lat": 43.7109876, "lon": -79.3998775}, {"type": "node", "id": 1217985242, "lat": 43.7109754, "lon": -79.3998751}, {"type": "node", "id": 1258981191, "lat": 43.6484283, "lon": -79.3805408}, {"type": "node", "id": 1258981192, "lat": 43.6483125, "lon": -79.3810713}, {"type": "node", "id": 1258981193, "lat": 43.6479193, "lon": -79.3809074}, {"type": "node", "id": 1258981194, "lat": 43.6480351, "lon": -79.3803769}, {"type": "node", "id": 1267302860, "lat": 43.6496484, "lon": -79.3840066, "tags": {"amenity": "bank", "brand": "RBC", "brand:en": "RBC Royal Bank", "brand:fr": "RBC Banque Royale", "brand:wikidata": "Q735261", "brand:wikipedia": "en:Royal Bank of Canada", "name": "RBC", "name:en": "RBC Royal Bank", "name:fr": "RBC Banque Royale", "official_name": "Royal Bank of Canada"}}, {"type": "node", "id": 1267303511, "lat": 43.64882, "lon": -79.384202, "tags": {"alt_name": "TD Canada Trust", "amenity": "bank", "brand": "TD", "brand:wikidata": "Q1080670", "brand:wikipedia": "en:TD Canada Trust", "name": "TD", "opening_hours": "Mo-We 08:00-18:00; Th-Fr 08:00-20:00; Sa 08:00-16:00; Su off", "website": "https://www.tdcanadatrust.com/"}}, {"type": "node", "id": 1279840928, "lat": 43.6395863, "lon": -79.4186929, "tags": {"addr:city": "Toronto", "addr:housenumber": "61", "addr:street": "Hanna Avenue", "alt_name": "TD Canada Trust", "amenity": "bank", "atm": "yes", "brand": "TD", "brand:wikidata": "Q1080670", "brand:wikipedia": "en:TD Canada Trust", "check_date": "2025-08-03", "name": "TD", "opening_hours": "Mo-Su \"please add opening times\"", "wheelchair": "yes"}}, {"type": "node", "id": 1279887035, "lat": 43.647461, "lon": -79.380052, "tags": {"amenity": "bank", "branch": "Canada", "brand": "State Bank of India", "brand:wikidata": "Q1340361", "brand:wikipedia": "en:State Bank of India", "name": "State Bank of India", "short_name": "SBI"}}, {"type": "node", "id": 1279887931, "lat": 43.6490727, "lon": -79.3800459, "tags": {"amenity": "bank", "brand": "Scotiabank", "brand:wikidata": "Q451476", "brand:wikipedia": "en:Scotiabank", "name": "Scotiabank", "operator": "Bank of Nova Scotia", "website": "http://www.scotiabank.com/"}}, {"type": "node", "id": 1280970872, "lat": 43.6403364, "lon": -79.4373774}, {"type": "node", "id": 1280970881, "lat": 43.6401516, "lon": -79.4373768}, {"type": "node", "id": 1280970888, "lat": 43.6401738, "lon": -79.437264}, {"type": "node", "id": 1280970901, "lat": 43.6403531, "lon": -79.4373585}, {"type": "node", "id": 1280970908, "lat": 43.6403205, "lon": -79.4374567}, {"type": "node", "id": 1280970913, "lat": 43.6401538, "lon": -79.4372718}, {"type": "node", "id": 1280970925, "lat": 43.6401342, "lon": -79.4373702}, {"type": "node", "id": 1280970940, "lat": 43.6403484, "lon": -79.437382}, {"type": "node", "id": 1280970946, "lat": 43.6401487, "lon": -79.4373912}, {"type": "node", "id": 1280970952, "lat": 43.6401709, "lon": -79.4372783}, {"type": "node", "id": 1280970961, "lat": 43.6403469, "lon": -79.4373299}, {"type": "node", "id": 1280970962, "lat": 43.640342, "lon": -79.4373543}, {"type": "node", "id": 1281054533, "lat": 43.687497, "lon": -79.489411}, {"type": "node", "id": 1281054534, "lat": 43.687456, "lon": -79.489302}, {"type": "node", "id": 1291245589, "lat": 43.7102313, "lon": -79.3630996, "tags": {"amenity": "bank", "brand": "RBC", "brand:en": "RBC Royal Bank", "brand:fr": "RBC Banque Royale", "brand:wikidata": "Q735261", "brand:wikipedia": "en:Royal Bank of Canada", "name": "RBC", "name:en": "RBC Royal Bank", "name:fr": "RBC Banque Royale", "note": "SmartCentres", "official_name": "Royal Bank of Canada"}}, {"type": "node", "id": 1291246471, "lat": 43.7117173, "lon": -79.3637393, "tags": {"alt_name": "TD Canada Trust", "amenity": "bank", "brand": "TD", "brand:wikidata": "Q1080670", "brand:wikipedia": "en:TD Canada Trust", "name": "TD", "website": "https://www.tdcanadatrust.com/"}}, {"type": "node", "id": 1298900489, "lat": 43.7084269, "lon": -79.3990811}, {"type": "node", "id": 1302403359, "lat": 43.7042511, "lon": -79.3742987}, {"type": "node", "id": 1302403371, "lat": 43.7042314, "lon": -79.3743829}, {"type": "node", "id": 1302403374, "lat": 43.7040507, "lon": -79.3742245}, {"type": "node", "id": 1302403380, "lat": 43.7040597, "lon": -79.374222}, {"type": "node", "id": 1302403414, "lat": 43.704201, "lon": -79.3744101}, {"type": "node", "id": 1302403436, "lat": 43.7040257, "lon": -79.3743408}, {"type": "node", "id": 1329989802, "lat": 43.6620735, "lon": -79.4259081, "tags": {"amenity": "bank", "brand": "CIBC", "brand:wikidata": "Q666694", "brand:wikipedia": "en:Canadian Imperial Bank of Commerce", "check_date": "2025-06-17", "name": "CIBC", "wheelchair": "yes"}}, {"type": "node", "id": 1334061682, "lat": 43.7046757, "lon": -79.3745709, "tags": {"addr:city": "Toronto", "addr:housenumber": "1529", "addr:postcode": "M4G 3B5", "addr:province": "Ontario", "addr:street": "Bayview Avenue", "amenity": "bank", "atm": "yes", "branch": "04812", "brand": "CIBC", "brand:wikidata": "Q666694", "brand:wikipedia": "en:Canadian Imperial Bank of Commerce", "drive_through": "no", "name": "CIBC", "note": "Cash at atm only"}}, {"type": "node", "id": 1347346210, "lat": 43.7262665, "lon": -79.3000047, "tags": {"amenity": "bank", "atm": "yes", "brand": "Scotiabank", "brand:wikidata": "Q451476", "brand:wikipedia": "en:Scotiabank", "name": "Scotiabank", "website": "http://www.scotiabank.com/"}}, {"type": "node", "id": 1366136397, "lat": 43.670509, "lon": -79.387118, "tags": {"addr:city": "Toronto", "addr:housenumber": "2", "addr:province": "ON", "addr:street": "Bloor Street West", "amenity": "bank", "brand": "CIBC", "brand:wikidata": "Q666694", "brand:wikipedia": "en:Canadian Imperial Bank of Commerce", "check_date": "2025-12-13", "image": "https://commons.wikimedia.org/wiki/File:IMG_CIBC.jpg", "name": "CIBC"}}, {"type": "node", "id": 1386870916, "lat": 43.6883726, "lon": -79.3939871, "tags": {"alt_name": "TD Canada Trust", "amenity": "bank", "atm": "yes", "brand": "TD", "brand:wikidata": "Q1080670", "brand:wikipedia": "en:TD Canada Trust", "name": "TD", "wheelchair": "yes"}}, {"type": "node", "id": 1392113231, "lat": 43.707974, "lon": -79.391575, "tags": {"amenity": "bank", "atm": "yes", "check_date": "2025-04-20", "created_by": "iLOE 1.9", "name": "Osuuspankki Finnish Credit Union Limited"}}, {"type": "node", "id": 1416806360, "lat": 43.708297, "lon": -79.389665, "tags": {"amenity": "bank", "name": "DUCA Credit Union"}}, {"type": "node", "id": 1435908505, "lat": 43.650076, "lon": -79.527753}, {"type": "node", "id": 1435908510, "lat": 43.650072, "lon": -79.527757}, {"type": "node", "id": 1435908511, "lat": 43.650145, "lon": -79.527665}, {"type": "node", "id": 1435908515, "lat": 43.650182, "lon": -79.527744}, {"type": "node", "id": 1435908517, "lat": 43.650231, "lon": -79.528094}, {"type": "node", "id": 1435908519, "lat": 43.650247, "lon": -79.52788}, {"type": "node", "id": 1435908521, "lat": 43.650252, "lon": -79.527681}, {"type": "node", "id": 1435908523, "lat": 43.650314, "lon": -79.528021}, {"type": "node", "id": 1435908525, "lat": 43.650317, "lon": -79.527818}, {"type": "node", "id": 1436756609, "lat": 43.713818, "lon": -79.364739, "tags": {"amenity": "bank", "brand": "Scotiabank", "brand:wikidata": "Q451476", "brand:wikipedia": "en:Scotiabank", "name": "Scotiabank", "website": "http://www.scotiabank.com/"}}, {"type": "node", "id": 1485259230, "lat": 43.705662, "lon": -79.312372}, {"type": "node", "id": 1485259231, "lat": 43.705678, "lon": -79.312388}, {"type": "node", "id": 1485259232, "lat": 43.705688, "lon": -79.312392}, {"type": "node", "id": 1485259233, "lat": 43.705706, "lon": -79.312119}, {"type": "node", "id": 1485259234, "lat": 43.705734, "lon": -79.312095}, {"type": "node", "id": 1485259235, "lat": 43.705735, "lon": -79.312152}, {"type": "node", "id": 1485259236, "lat": 43.705753, "lon": -79.312137}, {"type": "node", "id": 1485259237, "lat": 43.705782, "lon": -79.31233}, {"type": "node", "id": 1485259238, "lat": 43.70582, "lon": -79.312311}, {"type": "node", "id": 1485259239, "lat": 43.705787, "lon": -79.312339}, {"type": "node", "id": 1505898577, "lat": 43.6178671, "lon": -79.5414907}, {"type": "node", "id": 1505898579, "lat": 43.617873, "lon": -79.5413158}, {"type": "node", "id": 1505898587, "lat": 43.6181591, "lon": -79.5416198}, {"type": "node", "id": 1505898590, "lat": 43.618217, "lon": -79.5414969}, {"type": "node", "id": 1518398563, "lat": 43.649243, "lon": -79.393208, "tags": {"alt_name": "TD Canada Trust", "amenity": "bank", "brand": "TD", "brand:wikidata": "Q1080670", "check_date": "2025-12-06", "check_date:opening_hours": "2025-05-08", "name": "TD", "opening_hours": "Mo-We 09:00-18:00; Th,Fr 09:00-20:00; Sa 09:00-16:00; Su off"}}, {"type": "node", "id": 1518496591, "lat": 43.619553, "lon": -79.485507, "tags": {"amenity": "bank", "brand": "RBC", "brand:en": "RBC Royal Bank", "brand:fr": "RBC Banque Royale", "brand:wikidata": "Q735261", "brand:wikipedia": "en:Royal Bank of Canada", "name": "RBC", "name:en": "RBC Royal Bank", "name:fr": "RBC Banque Royale", "official_name": "Royal Bank of Canada", "wheelchair": "yes"}}, {"type": "node", "id": 1518516241, "lat": 43.6005627, "lon": -79.5054003, "tags": {"addr:housenumber": "2935", "addr:street": "Lake Shore Boulevard West", "amenity": "bank", "brand": "CIBC", "brand:wikidata": "Q666694", "brand:wikipedia": "en:Canadian Imperial Bank of Commerce", "name": "CIBC"}}, {"type": "node", "id": 1562058306, "lat": 43.651582, "lon": -79.378626, "tags": {"amenity": "bank", "created_by": "iLOE 1.9", "name": "Industrial and Commercial Bank of China (Canada)"}}, {"type": "node", "id": 1568604688, "lat": 43.7066462, "lon": -79.3980786, "tags": {"addr:city": "Toronto", "addr:housenumber": "1", "addr:postcode": "M4P 3A1", "addr:province": "ON", "addr:street": "Eglinton Avenue East", "amenity": "bank", "atm": "yes", "brand": "CIBC", "brand:wikidata": "Q666694", "brand:wikipedia": "en:Canadian Imperial Bank of Commerce", "check_date": "2025-04-20", "drive_through": "no", "fax": "+1-416-980-8660", "name": "CIBC", "opening_hours": "Mo-We 09:30-17:00; Th-Fr 09:30-18:00; Sa 09:30-16:00; Su off", "phone": "+1-416-980-4655", "website": "http://www.cibc.com/", "wheelchair": "yes"}}, {"type": "node", "id": 1639866939, "lat": 43.6512663, "lon": -79.3649477, "tags": {"amenity": "bank", "atm": "yes", "brand": "CIBC", "brand:wikidata": "Q666694", "brand:wikipedia": "en:Canadian Imperial Bank of Commerce", "name": "CIBC", "operator": "CIBC", "wheelchair": "yes"}}, {"type": "node", "id": 1660067053, "lat": 43.6504793, "lon": -79.4510251}, {"type": "node", "id": 1660067057, "lat": 43.6505243, "lon": -79.450805}, {"type": "node", "id": 1660067072, "lat": 43.6506121, "lon": -79.451077}, {"type": "node", "id": 1660067087, "lat": 43.6506571, "lon": -79.4508569}, {"type": "node", "id": 1678689485, "lat": 43.6512738, "lon": -79.4764461, "tags": {"addr:city": "Toronto", "addr:housenumber": "2220", "addr:street": "Bloor Street West", "alt_name": "TD Canada Trust", "amenity": "bank", "atm": "yes", "brand": "TD", "brand:wikidata": "Q1080670", "brand:wikipedia": "en:TD Canada Trust", "check_date": "2025-07-26", "drive_through": "no", "name": "TD", "opening_hours": "Mo-We 09:00-18:00; Th-Fr 09:00-20:00; Sa 09:00-16:00", "website": "https://www.tdcanadatrust.com/", "wheelchair": "yes"}}, {"type": "node", "id": 1753037911, "lat": 43.6706213, "lon": -79.4742602}, {"type": "node", "id": 1753037912, "lat": 43.6706242, "lon": -79.4740654}, {"type": "node", "id": 1753037913, "lat": 43.6706532, "lon": -79.4739302}, {"type": "node", "id": 1753037914, "lat": 43.67066, "lon": -79.4740801}, {"type": "node", "id": 1753037918, "lat": 43.6708307, "lon": -79.4740011}, {"type": "node", "id": 1753037919, "lat": 43.6708414, "lon": -79.473958}, {"type": "node", "id": 1753037927, "lat": 43.6709623, "lon": -79.4740543}, {"type": "node", "id": 1800021256, "lat": 43.6084268, "lon": -79.5567793}, {"type": "node", "id": 1800021257, "lat": 43.6084876, "lon": -79.5565123}, {"type": "node", "id": 1800021258, "lat": 43.608569, "lon": -79.556841}, {"type": "node", "id": 1800021259, "lat": 43.6085789, "lon": -79.5565519}, {"type": "node", "id": 1800021260, "lat": 43.6085924, "lon": -79.5564924}, {"type": "node", "id": 1800021261, "lat": 43.6086434, "lon": -79.5565146}, {"type": "node", "id": 1854311775, "lat": 43.6233378, "lon": -79.4813407}, {"type": "node", "id": 1854311777, "lat": 43.6234599, "lon": -79.4813978}, {"type": "node", "id": 1854311779, "lat": 43.6233083, "lon": -79.4815624}, {"type": "node", "id": 1854311783, "lat": 43.6233183, "lon": -79.4815197}, {"type": "node", "id": 1854311792, "lat": 43.6234059, "lon": -79.481606}, {"type": "node", "id": 1854311808, "lat": 43.623298, "lon": -79.4815106}, {"type": "node", "id": 1854311814, "lat": 43.6234719, "lon": -79.4813462}, {"type": "node", "id": 1854311822, "lat": 43.6233861, "lon": -79.4813079}, {"type": "node", "id": 1854311833, "lat": 43.6234818, "lon": -79.4814076}, {"type": "node", "id": 1854311837, "lat": 43.6234418, "lon": -79.4815788}, {"type": "node", "id": 1854311839, "lat": 43.6233745, "lon": -79.4813571}, {"type": "node", "id": 1854311841, "lat": 43.6234151, "lon": -79.4815669}, {"type": "node", "id": 1857964897, "lat": 43.5911249, "lon": -79.5767988, "tags": {"addr:city": "Mississauga", "addr:housenumber": "1077", "addr:postcode": "L4Y 1A6", "addr:street": "North Service Road", "amenity": "bank", "atm": "yes", "brand": "Scotiabank", "brand:wikidata": "Q451476", "brand:wikipedia": "en:Scotiabank", "name": "Scotiabank", "opening_hours": "Mo-We 09:30-16:00; Th-Fr 09:30-20:00; Sa 09:30-15:00; Su closed", "phone": "+1-905-272-4244", "website": "http://www.scotiabank.com/"}}, {"type": "node", "id": 1861798155, "lat": 43.6008119, "lon": -79.504241, "tags": {"addr:city": "Toronto", "addr:housenumber": "2895", "addr:street": "Lake Shore Boulevard West", "amenity": "bank", "atm": "yes", "brand": "Scotiabank", "brand:wikidata": "Q451476", "brand:wikipedia": "en:Scotiabank", "name": "Scotiabank", "website": "http://www.scotiabank.com/"}}, {"type": "node", "id": 1870666693, "lat": 43.6287263, "lon": -79.4903627, "tags": {"amenity": "bank", "brand": "RBC", "brand:en": "RBC Royal Bank", "brand:fr": "RBC Banque Royale", "brand:wikidata": "Q735261", "brand:wikipedia": "en:Royal Bank of Canada", "check_date": "2025-07-21", "name": "RBC", "name:en": "RBC Royal Bank", "name:fr": "RBC Banque Royale", "official_name": "Royal Bank of Canada", "opening_hours": "Mo-We 9:30-17:00; Th-Fr 9:30-18:00; Sa 9:00-16:00; Su off", "website": "https://maps.rbcroyalbank.com/locator/print.php?l=DAA3B106-4D12-4760-A0CA-34EC615616B3"}}, {"type": "node", "id": 1875158168, "lat": 43.7152177, "lon": -79.5548818}, {"type": "node", "id": 1875158169, "lat": 43.7152913, "lon": -79.5546073}, {"type": "node", "id": 1875158170, "lat": 43.7154434, "lon": -79.5549977}, {"type": "node", "id": 1875158171, "lat": 43.715517, "lon": -79.5547232}, {"type": "node", "id": 1883299162, "lat": 43.6192754, "lon": -79.5741062, "tags": {"addr:city": "Mississauga", "addr:housenumber": "1825", "addr:postcode": "L4X 2X1", "addr:street": "Dundas Street East", "amenity": "bank", "brand": "Scotiabank", "brand:wikidata": "Q451476", "brand:wikipedia": "en:Scotiabank", "name": "Scotiabank", "opening_hours": "Mo-Th 09:30-16:00, Fr 09:30-18:00, Sa-Su closed", "phone": "+1-905-625-8010", "website": "http://www.scotiabank.com/"}}, {"type": "node", "id": 1888709039, "lat": 43.6346909, "lon": -79.5620422, "tags": {"addr:housenumber": "290", "addr:street": "The West Mall", "amenity": "bank", "brand": "RBC", "brand:en": "RBC Royal Bank", "brand:fr": "RBC Banque Royale", "brand:wikidata": "Q735261", "brand:wikipedia": "en:Royal Bank of Canada", "check_date": "2025-04-24", "name": "RBC", "name:en": "RBC Royal Bank", "name:fr": "RBC Banque Royale", "official_name": "Royal Bank of Canada"}}, {"type": "node", "id": 1906029299, "lat": 43.5926232, "lon": -79.5705402, "tags": {"amenity": "bank", "brand": "Scotiabank", "brand:wikidata": "Q451476", "brand:wikipedia": "en:Scotiabank", "name": "Scotiabank", "website": "http://www.scotiabank.com/"}}, {"type": "node", "id": 1911312888, "lat": 43.6133005, "lon": -79.490117}, {"type": "node", "id": 1911312906, "lat": 43.6132375, "lon": -79.4898143}, {"type": "node", "id": 1911312967, "lat": 43.6132377, "lon": -79.4901479}, {"type": "node", "id": 1911313003, "lat": 43.6131217, "lon": -79.489934}, {"type": "node", "id": 1911313122, "lat": 43.6131144, "lon": -79.4898696}, {"type": "node", "id": 1911313193, "lat": 43.6132645, "lon": -79.4898817}, {"type": "node", "id": 1911313228, "lat": 43.6132792, "lon": -79.4898525}, {"type": "node", "id": 1911313303, "lat": 43.6132358, "lon": -79.4901305}, {"type": "node", "id": 1911313459, "lat": 43.6131549, "lon": -79.4901691}, {"type": "node", "id": 1949833606, "lat": 43.6527768, "lon": -79.397717}, {"type": "node", "id": 1949833607, "lat": 43.6528134, "lon": -79.397547}, {"type": "node", "id": 1949833608, "lat": 43.6529096, "lon": -79.3977714}, {"type": "node", "id": 1949833609, "lat": 43.6529461, "lon": -79.3976014}, {"type": "node", "id": 1995544504, "lat": 43.6219082, "lon": -79.5242561}, {"type": "node", "id": 1995544507, "lat": 43.6219536, "lon": -79.5240652}, {"type": "node", "id": 1995544508, "lat": 43.6219562, "lon": -79.5240523}, {"type": "node", "id": 1995544515, "lat": 43.621906, "lon": -79.5242635}, {"type": "node", "id": 2009970371, "lat": 43.591588, "lon": -79.5754811, "tags": {"alt_name": "TD Canada Trust", "amenity": "bank", "brand": "TD", "brand:wikidata": "Q1080670", "brand:wikipedia": "en:TD Canada Trust", "drive_through": "yes", "name": "TD"}}, {"type": "node", "id": 2018924095, "lat": 43.7244956, "lon": -79.4540863, "tags": {"amenity": "bank", "atm": "yes", "brand": "Scotiabank", "brand:wikidata": "Q451476", "brand:wikipedia": "en:Scotiabank", "check_date": "2025-11-30", "name": "Scotiabank", "opening_hours": "Mo-Fr 10:00-17:00; Sa 10:00-16:00; Su off", "website": "http://www.scotiabank.com/"}}, {"type": "node", "id": 2045166837, "lat": 43.7287972, "lon": -79.573854, "tags": {"addr:city": "Etobicoke", "addr:housenumber": "2291", "addr:street": "Kipling Avenue", "amenity": "bank", "brand": "CIBC", "brand:wikidata": "Q666694", "brand:wikipedia": "en:Canadian Imperial Bank of Commerce", "name": "CIBC", "opendata:type": "107005"}}, {"type": "node", "id": 2122925729, "lat": 43.7243369, "lon": -79.29887, "tags": {"alt_name": "TD Canada Trust", "amenity": "bank", "atm": "yes", "brand": "TD", "brand:wikidata": "Q1080670", "brand:wikipedia": "en:TD Canada Trust", "name": "TD", "website": "https://www.tdcanadatrust.com/"}}, {"type": "node", "id": 2131525089, "lat": 43.7062471, "lon": -79.3616053}, {"type": "node", "id": 2131525098, "lat": 43.7064447, "lon": -79.3616873}, {"type": "node", "id": 2131525101, "lat": 43.7065224, "lon": -79.3613291}, {"type": "node", "id": 2131525121, "lat": 43.7063247, "lon": -79.3612471}, {"type": "node", "id": 2149834598, "lat": 43.6504267, "lon": -79.3606646, "tags": {"alt_name": "TD Canada Trust", "amenity": "bank", "atm": "yes", "brand": "TD", "brand:wikidata": "Q1080670", "brand:wikipedia": "en:TD Canada Trust", "name": "TD", "website": "https://www.tdcanadatrust.com/"}}, {"type": "node", "id": 2159618449, "lat": 43.600124, "lon": -79.5073401, "tags": {"addr:city": "Toronto", "addr:housenumber": "3001", "addr:street": "Lake Shore Boulevard West", "amenity": "bank", "brand": "Alterna Savings", "brand:wikidata": "Q4736322", "brand:wikipedia": "en:Alterna Savings", "name": "Alterna Savings", "website": "https://www.alterna.ca/"}}, {"type": "node", "id": 2159618475, "lat": 43.5995811, "lon": -79.5099151, "tags": {"addr:city": "Etobicoke", "addr:housenumber": "3055", "addr:street": "Lake Shore Boulevard West", "amenity": "bank", "bank": "credit_union", "name": "St. Stanislaus-St. Casimer's Polish Parishes Credit Union Ltd"}}, {"type": "node", "id": 2164676300, "lat": 43.6502981, "lon": -79.3720547, "tags": {"amenity": "bank", "atm": "yes", "brand": "RBC", "brand:en": "RBC Royal Bank", "brand:fr": "RBC Banque Royale", "brand:wikidata": "Q735261", "brand:wikipedia": "en:Royal Bank of Canada", "name": "RBC", "name:en": "RBC Royal Bank", "name:fr": "RBC Banque Royale", "official_name": "Royal Bank of Canada", "opening_hours": "Mo-Fr 09:30-17:00", "operator": "RBC"}}, {"type": "node", "id": 2172207983, "lat": 43.7049522, "lon": -79.3750899, "tags": {"amenity": "bank", "brand": "RBC", "brand:en": "RBC Royal Bank", "brand:fr": "RBC Banque Royale", "brand:wikidata": "Q735261", "brand:wikipedia": "en:Royal Bank of Canada", "name": "RBC", "name:en": "RBC Royal Bank", "name:fr": "RBC Banque Royale", "official_name": "Royal Bank of Canada"}}, {"type": "node", "id": 2178859363, "lat": 43.6353066, "lon": -79.5413041}, {"type": "node", "id": 2178859366, "lat": 43.6354381, "lon": -79.541169}, {"type": "node", "id": 2178859369, "lat": 43.6354798, "lon": -79.5416258}, {"type": "node", "id": 2178859371, "lat": 43.6354904, "lon": -79.5416149}, {"type": "node", "id": 2178859374, "lat": 43.6355134, "lon": -79.5416578}, {"type": "node", "id": 2178859377, "lat": 43.6355187, "lon": -79.5415858}, {"type": "node", "id": 2178859379, "lat": 43.6355418, "lon": -79.5416286}, {"type": "node", "id": 2178859382, "lat": 43.6356113, "lon": -79.5414907}, {"type": "node", "id": 2193108947, "lat": 43.6594959, "lon": -79.382534, "tags": {"amenity": "bank", "brand": "BMO", "brand:wikidata": "Q806693", "brand:wikipedia": "en:Bank of Montreal", "check_date": "2025-12-13", "name": "BMO", "official_name": "Bank of Montreal", "wheelchair": "yes"}}, {"type": "node", "id": 2193108948, "lat": 43.6592714, "lon": -79.3824502, "tags": {"addr:city": "Toronto", "addr:housenumber": "382", "addr:postcode": "M5B 1S9", "addr:province": "Ontario", "addr:street": "Yonge Street", "amenity": "bank", "atm": "yes", "brand": "RBC", "brand:en": "RBC Royal Bank", "brand:fr": "RBC Banque Royale", "brand:wikidata": "Q735261", "brand:wikipedia": "en:Royal Bank of Canada", "check_date": "2025-12-13", "name": "RBC", "name:en": "RBC Royal Bank", "name:fr": "RBC Banque Royale", "official_name": "Royal Bank of Canada", "opening_hours": "Mo-Th 09:30-17:00; Sa 09:30-16:00; Fr 09:30-18:00"}}, {"type": "node", "id": 2201111011, "lat": 43.65979, "lon": -79.435106, "tags": {"amenity": "bank", "brand": "CIBC", "brand:wikidata": "Q666694", "brand:wikipedia": "en:Canadian Imperial Bank of Commerce", "check_date": "2025-06-17", "name": "CIBC", "opening_hours": "Mo-We 09:30-17:00; Th-Fr 09:00-18:00; Sa 09:30-16:00; Su off"}}, {"type": "node", "id": 2208720797, "lat": 43.6510989, "lon": -79.4759524}, {"type": "node", "id": 2208720798, "lat": 43.6509459, "lon": -79.4758736}, {"type": "node", "id": 2208720799, "lat": 43.6509052, "lon": -79.4760497}, {"type": "node", "id": 2208720801, "lat": 43.6509632, "lon": -79.4760905}, {"type": "node", "id": 2208720802, "lat": 43.6510444, "lon": -79.4761264}, {"type": "node", "id": 2208720803, "lat": 43.6510716, "lon": -79.476105}, {"type": "node", "id": 2208720804, "lat": 43.6510957, "lon": -79.4760049}, {"type": "node", "id": 2208720811, "lat": 43.6510156, "lon": -79.4759159}, {"type": "node", "id": 2208720812, "lat": 43.651018, "lon": -79.4759053}, {"type": "node", "id": 2210110306, "lat": 43.6873336, "lon": -79.3477844, "tags": {"alt_name": "TD Canada Trust", "amenity": "bank", "brand": "TD", "brand:wikidata": "Q1080670", "brand:wikipedia": "en:TD Canada Trust", "name": "TD", "opening_hours": "Mo-Fr 08:00-20:00; Sa 08:00-16:00; Su off", "website": "https://www.tdcanadatrust.com/", "wheelchair": "no"}}, {"type": "node", "id": 2249747121, "lat": 43.667964, "lon": -79.487417}, {"type": "node", "id": 2249747122, "lat": 43.667783, "lon": -79.487341}, {"type": "node", "id": 2249747123, "lat": 43.66786, "lon": -79.486996}, {"type": "node", "id": 2249747124, "lat": 43.668041, "lon": -79.487072}, {"type": "node", "id": 2286883374, "lat": 43.6581787, "lon": -79.4430078, "tags": {"addr:city": "Toronto", "addr:housenumber": "1293", "addr:street": "Bloor Street West", "alt_name": "BMO", "amenity": "bank", "brand": "BMO", "brand:wikidata": "Q806693", "brand:wikipedia": "en:Bank of Montreal", "check_date": "2025-05-10", "name": "BMO", "official_name": "Bank of Montreal"}}, {"type": "node", "id": 2287335954, "lat": 43.6478847, "lon": -79.5081374, "tags": {"addr:housenumber": "2947", "addr:street": "Bloor Street West", "alt_name": "RBC Finanical Group", "amenity": "bank", "brand": "RBC", "brand:en": "RBC Royal Bank", "brand:fr": "RBC Banque Royale", "brand:wikidata": "Q735261", "brand:wikipedia": "en:Royal Bank of Canada", "name": "RBC", "name:en": "RBC Royal Bank", "name:fr": "RBC Banque Royale", "official_name": "Royal Bank of Canada", "wheelchair": "yes"}}, {"type": "node", "id": 2350276400, "lat": 43.705356, "lon": -79.278022}, {"type": "node", "id": 2350276401, "lat": 43.705398, "lon": -79.277829}, {"type": "node", "id": 2350276409, "lat": 43.705609, "lon": -79.278074}, {"type": "node", "id": 2350276413, "lat": 43.705635, "lon": -79.278136}, {"type": "node", "id": 2350276416, "lat": 43.705645, "lon": -79.278088}, {"type": "node", "id": 2365100292, "lat": 43.6794414, "lon": -79.5470293, "tags": {"addr:city": "Etobicoke", "addr:housenumber": "250", "addr:postcode": "M9R 2R5", "addr:street": "Wincott Drive", "alt_name": "TD Canada Trust", "amenity": "bank", "atm": "yes", "brand": "TD", "brand:wikidata": "Q1080670", "brand:wikipedia": "en:TD Canada Trust", "name": "TD", "opening_hours": "Mo-Fr 08:00-20:00; Sa 08:00-16:00; Su 11:00-16:00", "phone": "+1-416-241-5248", "source": "https://www.tdcanadatrust.com/cgi-bin/locator/drill.cgi?TRANSIT=0048", "website": "https://www.tdcanadatrust.com", "wheelchair": "no"}}, {"type": "node", "id": 2378561739, "lat": 43.7258046, "lon": -79.4168357}, {"type": "node", "id": 2378561770, "lat": 43.7256681, "lon": -79.4167903, "tags": {"addr:city": "North York", "addr:housenumber": "410", "addr:street": "Woburn Avenue", "opendata:type": "115001"}}, {"type": "node", "id": 2378561802, "lat": 43.72456, "lon": -79.416994}, {"type": "node", "id": 2378561810, "lat": 43.724609, "lon": -79.416763}, {"type": "node", "id": 2378561813, "lat": 43.724646, "lon": -79.416735}, {"type": "node", "id": 2378561832, "lat": 43.7255598, "lon": -79.4167466}, {"type": "node", "id": 2378561833, "lat": 43.7256148, "lon": -79.4164782}, {"type": "node", "id": 2378561835, "lat": 43.725625, "lon": -79.4164724}, {"type": "node", "id": 2378561837, "lat": 43.7257868, "lon": -79.4165368}, {"type": "node", "id": 2378561838, "lat": 43.7257952, "lon": -79.4168416}, {"type": "node", "id": 2378561839, "lat": 43.7257986, "lon": -79.4164864}, {"type": "node", "id": 2378561843, "lat": 43.7258706, "lon": -79.4165169}, {"type": "node", "id": 2378561850, "lat": 43.7259569, "lon": -79.4167931}, {"type": "node", "id": 2378561852, "lat": 43.7260104, "lon": -79.4165483}, {"type": "node", "id": 2378561855, "lat": 43.7261527, "lon": -79.416875}, {"type": "node", "id": 2378561856, "lat": 43.7262061, "lon": -79.4166302}, {"type": "node", "id": 2405795800, "lat": 43.6508158, "lon": -79.4784348, "tags": {"addr:city": "Toronto", "addr:housenumber": "2280", "addr:street": "Bloor Street West", "alt_name": "Buduchnist Credit Union", "amenity": "bank", "atm": "yes", "check_date": "2025-05-20", "name": "BCU Financial", "phone": "+1 4167638914", "website": "http://www.buduchnist.com/", "wheelchair": "yes"}}, {"type": "node", "id": 2405837497, "lat": 43.6495754, "lon": -79.4826959, "tags": {"addr:city": "Toronto", "addr:housenumber": "2397", "addr:street": "Bloor Street West", "amenity": "bank", "name": "Ukrainian Credit Union Limited", "opening_hours": "Mo-Th 10:00-15:00; Fr 10:00-18:00; Sa 09:00-13:00"}}, {"type": "node", "id": 2407511161, "lat": 43.7255914, "lon": -79.3187736, "tags": {"amenity": "bank", "name": "Latvian Credit Union", "name:lv": "Latvie\u0161u Kreditsabiedr\u012bba", "website": "http://www.kredsab.ca/"}}, {"type": "node", "id": 2470543877, "lat": 43.6080122, "lon": -79.5475228, "tags": {"amenity": "bank", "bank": "credit_union", "check_date": "2025-05-18", "name": "Moya Financial"}}, {"type": "node", "id": 2473918407, "lat": 43.6555395, "lon": -79.3838982, "tags": {"addr:city": "Toronto", "addr:floor": "G", "addr:housenumber": "101", "addr:street": "Dundas Street West", "amenity": "bank", "atm": "yes", "brand": "RBC", "brand:en": "RBC Royal Bank", "brand:fr": "RBC Banque Royale", "brand:wikidata": "Q735261", "brand:wikipedia": "en:Royal Bank of Canada", "check_date": "2025-12-11", "drive_through": "no", "level": "0", "name": "RBC Royal Bank", "name:en": "RBC Royal Bank", "name:fr": "RBC Banque Royale", "official_name": "Royal Bank of Canada", "opening_hours": "Mo-Th 09:30-17:00; Fr 09:30-18:00; Sa-Su off", "wheelchair": "yes"}}, {"type": "node", "id": 2476496590, "lat": 43.724757, "lon": -79.416776}, {"type": "node", "id": 2476496591, "lat": 43.7260089, "lon": -79.4173416, "tags": {"addr:housenumber": "1640", "addr:street": "Avenue Road", "amenity": "bank", "brand": "Scotiabank", "brand:wikidata": "Q451476", "brand:wikipedia": "en:Scotiabank", "name": "Scotiabank"}},